title,location,price,url,source,lng,lat
木樨园 整租·南三环中路69号 1室1厅 南        ,南三环中路69号,4000,https://bj.lianjia.com/zufang/BJ2355699433830105088.html,lj,116.405059,39.897052
芍药居 整租·芍药居北里 2室1厅 东        ,芍药居北里,6000,https://bj.lianjia.com/zufang/BJ2355692712046362624.html,lj,116.442543,39.991949
定慧寺 整租·恩济庄82号院 1室0厅 北        ,恩济庄82号院,3500,https://bj.lianjia.com/zufang/BJ2355640394445750272.html,lj,116.289855,39.933693
通州北苑 整租·长城国际 1室0厅 西        ,长城国际,3600,https://bj.lianjia.com/zufang/BJ2355543602727493632.html,lj,116.63929399999999,39.900732
通州北苑 整租·长城国际 2室1厅 东        ,长城国际,3600,https://bj.lianjia.com/zufang/BJ2355538184995348480.html,lj,116.63929399999999,39.900732
宋家庄 整租·横三条15号 1室1厅 南        ,横三条15号,3200,https://bj.lianjia.com/zufang/BJ2356399106148007936.html,lj,116.43253899999999,39.85599000000001
田村 整租·西木小区 1室1厅 南        ,西木小区,4400,https://bj.lianjia.com/zufang/BJ2355585987326771200.html,lj,116.278575,39.939184000000004
顺义其它 整租·中国铁建顺鑫汇 2房间 西        ,中国铁建顺鑫汇,2300,https://bj.lianjia.com/zufang/BJ2355669039084748800.html,lj,116.669577,40.093741
甜水园 整租·马道口 1室1厅 南        ,马道口,4500,https://bj.lianjia.com/zufang/BJ2356379670951772160.html,lj,116.482118,39.933157
学院路 整租·城华园 1室0厅 南        ,城华园,5500,https://bj.lianjia.com/zufang/BJ2355753741493477376.html,lj,116.357249,40.01745
顺义其它 整租·澜西园四区 1室1厅 西        ,澜西园四区,3000,https://bj.lianjia.com/zufang/BJ2355493954851979264.html,lj,116.63856399999999,40.119584
定福庄 整租·金星小区 2室1厅 南/北        ,金星小区,4500,https://bj.lianjia.com/zufang/BJ2356245749459075072.html,lj,116.56121599999999,39.92434
石景山其它 整租·高井 1室1厅 南        ,高井,2500,https://bj.lianjia.com/zufang/BJ2356233470483120128.html,lj,116.141508,39.951177
马连道 整租·三义东里 1室1厅 南        ,三义东里,5000,https://bj.lianjia.com/zufang/BJ2355769490341904384.html,lj,116.339698,39.894535999999995
豆各庄 整租·青荷里南山园 1室1厅 南        ,青荷里南山园,3500,https://bj.lianjia.com/zufang/BJ2355521870075805696.html,lj,116.570158,39.867275
西坝河 整租·西坝河东里 2室1厅 南/北        ,西坝河东里,6100,https://bj.lianjia.com/zufang/BJ2355603855279915008.html,lj,116.452569,39.97226
北大地 整租·北大地三里 2室1厅 西北        ,北大地三里,4000,https://bj.lianjia.com/zufang/BJ2355562388344020992.html,lj,116.288081,39.861731
潞苑 整租·华龙小区 2室1厅 南/北        ,华龙小区,3200,https://bj.lianjia.com/zufang/BJ2355500571542429696.html,lj,116.697746,39.936513
和平里 整租·和平街十五区1号院 1室1厅 南/北        ,和平街十五区1号院,5800,https://bj.lianjia.com/zufang/BJ2357065261523410944.html,lj,116.437704,39.972496
酒仙桥 整租·高家园一区 1室1厅 南        ,高家园一区,5200,https://bj.lianjia.com/zufang/BJ2355593572642209792.html,lj,116.48956899999999,39.983641
丽泽 整租·前泥洼小区 1室1厅 南        ,前泥洼小区,4500,https://bj.lianjia.com/zufang/BJ2355780721253564416.html,lj,116.309271,39.863134
豆各庄 整租·朝丰家园 1室1厅 南        ,朝丰家园,3800,https://bj.lianjia.com/zufang/BJ2355684609012015104.html,lj,116.57166000000001,39.856545000000004
常营 整租·金隅丽景园 1室1厅 西        ,金隅丽景园,4700,https://bj.lianjia.com/zufang/BJ2356440326325149696.html,lj,116.618724,39.931887
甘露园 整租·天天朝阳 1室0厅 东        ,天天朝阳,4800,https://bj.lianjia.com/zufang/BJ2357080484045406208.html,lj,116.516116,39.923828
田村 整租·田村路19号院 2室1厅 南/北        ,田村路19号院,4800,https://bj.lianjia.com/zufang/BJ2356239970219327488.html,lj,116.401009,39.904125
梨园 整租·云景西里南区 1室1厅 南        ,云景西里南区,3400,https://bj.lianjia.com/zufang/BJ2355831757938360320.html,lj,116.66937800000001,39.882911
豆各庄 整租·富力又一城C区 2室1厅 南        ,富力又一城C区,6000,https://bj.lianjia.com/zufang/BJ2356509054786084864.html,lj,116.56444199999999,39.853055
北京南站 整租·翠林一里 1室1厅 南        ,翠林一里,4500,https://bj.lianjia.com/zufang/BJ2356459376333824000.html,lj,116.376327,39.867093
白石桥 整租·大慧寺21号院 1室1厅 南        ,大慧寺21号院,6200,https://bj.lianjia.com/zufang/BJ2357241507049906176.html,lj,116.339371,39.96167
万达 整租·新华东街 1室0厅 南        ,新华东街,2500,https://bj.lianjia.com/zufang/BJ2355632867398393856.html,lj,116.675397,39.914522999999996
安宁庄 整租·安宁佳园 2室1厅 东南/南        ,安宁佳园,5500,https://bj.lianjia.com/zufang/BJ2355756877247692800.html,lj,116.33419099999999,40.056976
和义 整租·南苑北里三区 1室1厅 南/北        ,南苑北里三区,3750,https://bj.lianjia.com/zufang/BJ2356518927699550208.html,lj,116.401708,39.816943
亚运村 整租·安园 1室1厅 南/北        ,安园,5300,https://bj.lianjia.com/zufang/BJ2355712174355660800.html,lj,116.416937,40.007126
东坝 整租·东泽园 2室1厅 南/北        ,东泽园,5200,https://bj.lianjia.com/zufang/BJ2356404898817376256.html,lj,116.564253,39.965654
颐和园 整租·北坞嘉园西里 1室2厅 南/北        ,北坞嘉园西里,6000,https://bj.lianjia.com/zufang/BJ2356259478925746176.html,lj,116.25283,39.984179
武夷花园 整租·水仙园 1室1厅 南/北        ,水仙园,3300,https://bj.lianjia.com/zufang/BJ2355676619651424256.html,lj,116.700421,39.920289
西三旗 整租·建材城西二里 2室1厅 南/北        ,建材城西二里,5600,https://bj.lianjia.com/zufang/BJ2355542299523956736.html,lj,116.361231,40.069436
安宁庄 整租·上林溪 4房间 南        ,上林溪,5800,https://bj.lianjia.com/zufang/BJ2356974012955377664.html,lj,116.33188500000001,40.051272
玉桥 整租·柳岸方园 1室0厅 北        ,柳岸方园,3200,https://bj.lianjia.com/zufang/BJ2357155804769165312.html,lj,116.684993,39.894375
方庄 整租·10AM新坐标 1室1厅 北        ,10AM新坐标,5600,https://bj.lianjia.com/zufang/BJ2356428451076390912.html,lj,116.450923,39.873717
劲松 整租·都城心屿 1室1厅 东        ,都城心屿,5500,https://bj.lianjia.com/zufang/BJ2355655481818882048.html,lj,116.458076,39.89183
刘家窑 整租·石榴园南里小区 1室1厅 南        ,石榴园南里小区,4600,https://bj.lianjia.com/zufang/BJ2355509445598904320.html,lj,116.424527,39.850362
刘家窑 整租·石榴园南里小区 1室1厅 南        ,石榴园南里小区,4600,https://bj.lianjia.com/zufang/BJ2356314117872566272.html,lj,116.424527,39.850362
梨园 整租·当代名筑 1室0厅 东北        ,当代名筑,3600,https://bj.lianjia.com/zufang/BJ2356590145832230912.html,lj,116.671705,39.895722
梨园 整租·当代名筑 1室1厅 西        ,当代名筑,3600,https://bj.lianjia.com/zufang/BJ2355797052103344128.html,lj,116.671705,39.895722
公主坟 整租·普惠南里 1室1厅 南        ,普惠南里,5000,https://bj.lianjia.com/zufang/BJ2356463588388118528.html,lj,116.313868,39.918033
观音寺 整租·海悦公馆 1室1厅 西北        ,海悦公馆,3000,https://bj.lianjia.com/zufang/BJ2356500414796939264.html,lj,116.353908,39.726995
大峪 整租·大峪南路 2室1厅 南/北        ,大峪南路,2500,https://bj.lianjia.com/zufang/BJ2355593698513002496.html,lj,116.101879,39.940014
沙河 整租·北街家园八区 1室0厅 东        ,北街家园八区,2800,https://bj.lianjia.com/zufang/BJ2356427399672889344.html,lj,116.266093,40.171229
海淀北部新区 整租·保利西山林语 1室1厅 西        ,保利西山林语,4500,https://bj.lianjia.com/zufang/BJ2355527963811774464.html,lj,116.22173400000001,40.044810999999996
亚运村 整租·慧忠里 1室1厅 东南        ,慧忠里,6000,https://bj.lianjia.com/zufang/BJ2356572607484542976.html,lj,116.410182,40.00307
亚运村 整租·慧忠里 1室1厅 东/西        ,慧忠里,5800,https://bj.lianjia.com/zufang/BJ2356987129331974144.html,lj,116.410182,40.00307
安宁庄 整租·安宁里南区 1室1厅 东        ,安宁里南区,3200,https://bj.lianjia.com/zufang/BJ2356559557360361472.html,lj,116.33962,40.050683
花乡 整租·银地家园 2室1厅 南/北        ,银地家园,4600,https://bj.lianjia.com/zufang/BJ2355678411038392320.html,lj,116.336509,39.82177100000001
科技园区 整租·富丰园小区 2室1厅 南/北        ,富丰园小区,4600,https://bj.lianjia.com/zufang/BJ2357130155157094400.html,lj,116.28919,39.843355
广安门 整租·远见名苑 1室0厅 北        ,远见名苑,5500,https://bj.lianjia.com/zufang/BJ2355531983372681216.html,lj,116.344985,39.891739
亦庄开发区其它 整租·南海雅苑北区 2室1厅 东南        ,南海雅苑北区,4100,https://bj.lianjia.com/zufang/BJ2355825162328481792.html,lj,116.487276,39.793877
石景山其它 整租·现代生活 2室1厅 南/北        ,现代生活,3000,https://bj.lianjia.com/zufang/BJ2354067606102876160.html,lj,116.140876,39.95751
公主坟 整租·翠微南里 1室1厅 南        ,翠微南里,3500,https://bj.lianjia.com/zufang/BJ2354342112998735872.html,lj,116.303637,39.918518
黄村中 整租·兴政西里 1室1厅 南/北        ,兴政西里,2100,https://bj.lianjia.com/zufang/BJ2354346950028951552.html,lj,116.34258200000001,39.734396999999994
公主坟 整租·翠微南里 1室1厅 南        ,翠微南里,3500,https://bj.lianjia.com/zufang/BJ2354342112998735872.html,lj,116.303637,39.918518
豆各庄 整租·富力又一城B区 2室1厅 西        ,富力又一城B区,6200,https://bj.lianjia.com/zufang/BJ2354148248626929664.html,lj,116.568935,39.852754
三元桥 整租·曙光里 1室0厅 南        ,曙光里,3800,https://bj.lianjia.com/zufang/BJ2354833631681724416.html,lj,116.458553,39.971497
苏州桥 整租·稻香园 3室1厅 北        ,稻香园,3000,https://bj.lianjia.com/zufang/BJ2354314654995988480.html,lj,116.308202,39.988362
潘家园 整租·松榆西里 2室1厅 南/北        ,松榆西里,5000,https://bj.lianjia.com/zufang/BJ2354115369116893184.html,lj,116.47107700000001,39.879461
潘家园 整租·华威西里 2室1厅 南/北        ,华威西里,5800,https://bj.lianjia.com/zufang/BJ2355814799210201088.html,lj,116.460146,39.879538
青塔 整租·广安﹒康馨家园 1室1厅 南        ,广安﹒康馨家园,3600,https://bj.lianjia.com/zufang/BJ2354220200301436928.html,lj,116.236151,39.882285
大望路 整租·CBD传奇 1室0厅 北        ,CBD传奇,4800,https://bj.lianjia.com/zufang/BJ2354988274428420096.html,lj,116.492045,39.905703
黄村中 整租·富强东里 2室1厅 南/北        ,富强东里,3000,https://bj.lianjia.com/zufang/BJ2354239268269850624.html,lj,116.347461,39.74344
旧宫 整租·清逸园 1室1厅 南/西/北        ,清逸园,3000,https://bj.lianjia.com/zufang/BJ2354853833068519424.html,lj,116.453702,39.80963300000001
酒仙桥 整租·飘HOME 1室0厅 北        ,飘HOME,6300,https://bj.lianjia.com/zufang/BJ2354899309356654592.html,lj,116.494609,39.976851
苹果园 整租·金顶街九中教工楼 1室1厅 南        ,金顶街九中教工楼,3200,https://bj.lianjia.com/zufang/BJ2354850598757089280.html,lj,116.16887,39.941389
北七家 整租·冠雅苑 2室1厅 南/北        ,冠雅苑,3800,https://bj.lianjia.com/zufang/BJ2354256269680058368.html,lj,116.41454499999999,40.120929
武夷花园 整租·月亮城堡 1室0厅 南        ,月亮城堡,3500,https://bj.lianjia.com/zufang/BJ2357095915963293696.html,lj,116.64213500000001,39.890651
劲松 整租·劲松二区 1室1厅 南        ,劲松二区,5000,https://bj.lianjia.com/zufang/BJ2354263638384320512.html,lj,116.460843,39.891539
大峪 整租·惠民家园 1室1厅 南        ,惠民家园,2600,https://bj.lianjia.com/zufang/BJ2355608571296882688.html,lj,116.101652,39.947771
万达 整租·帅府园 1室1厅 南/北        ,帅府园,3600,https://bj.lianjia.com/zufang/BJ2356964882802819072.html,lj,116.653061,39.909035
西三旗 整租·育新花园 2室1厅 东        ,育新花园,5500,https://bj.lianjia.com/zufang/BJ2355829593560596480.html,lj,116.351822,40.062749
清河 整租·永泰东里 2室1厅 南/北        ,永泰东里,6000,https://bj.lianjia.com/zufang/BJ2355715546919739392.html,lj,116.365395,40.040644
朝阳其它 整租·绿丰家园 1室1厅 南        ,绿丰家园,3700,https://bj.lianjia.com/zufang/BJ2354803660459868160.html,lj,116.58431999999999,39.87912100000001
新宫 整租·南庭新苑南区 1室1厅 东        ,南庭新苑南区,4000,https://bj.lianjia.com/zufang/BJ2356555802350985216.html,lj,116.3755,39.80896
北七家 整租·海德堡花园 2室1厅 南        ,海德堡花园,3400,https://bj.lianjia.com/zufang/BJ2354298723435020288.html,lj,116.463098,40.114135
海淀北部新区 整租·环山村 2室1厅 南/北        ,环山村,3600,https://bj.lianjia.com/zufang/BJ2354181525975089152.html,lj,116.21552199999999,40.040586
豆各庄 整租·富力又一城B区 2室1厅 南/北        ,富力又一城B区,5700,https://bj.lianjia.com/zufang/BJ2357094604664209408.html,lj,116.56893500000001,39.852754
潘家园 整租·华威西里 2室1厅 南/北        ,华威西里,6000,https://bj.lianjia.com/zufang/BJ2354161885467131904.html,lj,116.460146,39.879538000000004
青塔 整租·蔚园 2室1厅 南/北        ,蔚园,4600,https://bj.lianjia.com/zufang/BJ2354059301431287808.html,lj,116.26911299999999,39.90032
东坝 整租·金隅景和园 2室1厅 南        ,金隅景和园,6000,https://bj.lianjia.com/zufang/BJ2357117058342191104.html,lj,116.55713300000001,39.958265000000004
顺义城 整租·石园北区 2室1厅 南/北        ,石园北区,3300,https://bj.lianjia.com/zufang/BJ2355057151191826432.html,lj,116.67084399999999,40.12035
旧宫 整租·桃源里 3室1厅 南/北        ,桃源里,4500,https://bj.lianjia.com/zufang/BJ2357040764254420992.html,lj,116.43156299999998,39.800828
清河 整租·永泰东里 1室1厅 东南        ,永泰东里,5000,https://bj.lianjia.com/zufang/BJ2356538592299319296.html,lj,116.36539499999999,40.040644
海淀北部新区 整租·六里屯四区 1室0厅 东        ,六里屯四区,4300,https://bj.lianjia.com/zufang/BJ2354104049177206784.html,lj,116.263345,40.072682
芍药居 整租·隆远阁 1室0厅 东        ,隆远阁,6300,https://bj.lianjia.com/zufang/BJ2355526147385081856.html,lj,116.439095,39.983437
常营 整租·保利嘉园三号院 1室1厅 南        ,保利嘉园三号院,5500,https://bj.lianjia.com/zufang/BJ2354112668447031296.html,lj,116.61216399999999,39.936605
定福庄 整租·东领鉴筑 1室0厅 北        ,东领鉴筑,4600,https://bj.lianjia.com/zufang/BJ2354270322460459008.html,lj,116.558986,39.925236
豆各庄 整租·扬州水乡 2室1厅 南        ,扬州水乡,4000,https://bj.lianjia.com/zufang/BJ2356922787601588224.html,lj,116.57713999999999,39.853882
旧宫 整租·六营门小区 2室1厅 南/北        ,六营门小区,4300,https://bj.lianjia.com/zufang/BJ2356560767216009216.html,lj,116.423639,39.804178
北工大 整租·西大望路甲27号院 2室1厅 北        ,西大望路甲27号院,5600,https://bj.lianjia.com/zufang/BJ2355553895767883776.html,lj,116.48463600000001,39.89058
首都机场 整租·燕翔东里 2室1厅 南        ,燕翔东里,4500,https://bj.lianjia.com/zufang/BJ2356573193353043968.html,lj,116.60312900000001,40.053726
田村 整租·田村路29号院 2室1厅 南/北        ,田村路29号院,5600,https://bj.lianjia.com/zufang/BJ2356300868099244032.html,lj,116.27163700000001,39.936786
大兴其它 整租·南海家园四里 1室1厅 南/北        ,南海家园四里,3000,https://bj.lianjia.com/zufang/BJ2355665736665399296.html,lj,116.490629,39.76657
通州其它 整租·首开缇香郡 1室1厅 南        ,首开缇香郡,2500,https://bj.lianjia.com/zufang/BJ2355674981071339520.html,lj,116.707204,39.725733
马驹桥 整租·合生世界花园 2房间 复式 东        ,合生世界花园,3300,https://bj.lianjia.com/zufang/BJ2354205454579531776.html,lj,116.56203799999999,39.745397
定福庄 整租·泰福苑D1区 1室1厅 南        ,泰福苑D1区,4800,https://bj.lianjia.com/zufang/BJ2354890972933914624.html,lj,116.575313,39.926401
常营 整租·北京新天地一期 2室1厅 北        ,北京新天地一期,5600,https://bj.lianjia.com/zufang/BJ2354982634582982656.html,lj,116.611333,39.91869000000001
顺义城 整租·仓上小区 1室1厅 南/北        ,仓上小区,2700,https://bj.lianjia.com/zufang/BJ2354992585157640192.html,lj,116.658634,40.119322
军博 整租·电信小区 1室1厅 南        ,电信小区,5300,https://bj.lianjia.com/zufang/BJ2354055433679290368.html,lj,116.33323100000001,39.904601
西红门 整租·鸿坤理想城八期 1室1厅 南        ,鸿坤理想城八期,3500,https://bj.lianjia.com/zufang/BJ2356976158534541312.html,lj,116.34934399999999,39.791631
老山 整租·老山东里 2室1厅 南/北        ,老山东里,4300,https://bj.lianjia.com/zufang/BJ2355597013086904320.html,lj,116.23068799999999,39.915110999999996
玉泉营 整租·新村二里 2室1厅 南/北        ,新村二里,4600,https://bj.lianjia.com/zufang/BJ2357003791179718656.html,lj,116.312841,39.847354
万寿路 整租·复兴路甲65号 1室1厅 南        ,复兴路甲65号,5000,https://bj.lianjia.com/zufang/BJ2354160741604663296.html,lj,116.29377,39.914194
常营 整租·苹果派 1室1厅 北        ,苹果派,5400,https://bj.lianjia.com/zufang/BJ2355781106608898048.html,lj,116.584769,39.935585
枣园 整租·康庄路50号院 1室1厅 南        ,康庄路50号院,3300,https://bj.lianjia.com/zufang/BJ2356291923687243776.html,lj,116.319629,39.7617
和义 整租·红星楼 2室1厅 南/北        ,红星楼,4000,https://bj.lianjia.com/zufang/BJ2356474144335872000.html,lj,116.43411699999999,39.811871000000004
定慧寺 整租·定慧西里 1室1厅 北        ,定慧西里,2400,https://bj.lianjia.com/zufang/BJ2355652228498595840.html,lj,116.289551,39.928946
鼓楼大街 整租·永安里小区 2室1厅 南/北        ,永安里小区,3500,https://bj.lianjia.com/zufang/BJ2354141226112401408.html,lj,116.238932,40.217119
海淀北部新区 整租·凯盛家园 2室1厅 南/北        ,凯盛家园,5000,https://bj.lianjia.com/zufang/BJ2354217213403611136.html,lj,116.178172,40.056034999999994
顺义城 整租·仓上小区 2室1厅 南/北        ,仓上小区,3000,https://bj.lianjia.com/zufang/BJ2355834500417855488.html,lj,116.658634,40.119322
顺义城 整租·仓上小区 2室1厅 南/北        ,仓上小区,2700,https://bj.lianjia.com/zufang/BJ2356441064883363840.html,lj,116.658634,40.119322
大兴其它 整租·新兴家园 2室1厅 南/北        ,新兴家园,2800,https://bj.lianjia.com/zufang/BJ2355051070356725760.html,lj,116.27292,39.866682
玉桥 整租·玉桥南里 3室1厅 南/北        ,玉桥南里,3600,https://bj.lianjia.com/zufang/BJ2355542986450288640.html,lj,116.688709,39.896093
百子湾 整租·大成国际 1室0厅 西        ,大成国际,5700,https://bj.lianjia.com/zufang/BJ2354337642390495232.html,lj,116.49856799999999,39.906029
顺义城 整租·石园北区 2室1厅 南/北        ,石园北区,3200,https://bj.lianjia.com/zufang/BJ2357112652620103680.html,lj,116.67084399999999,40.12035
顺义城 整租·仁和花园一区 2室1厅 南/北        ,仁和花园一区,3200,https://bj.lianjia.com/zufang/BJ2357168314096295936.html,lj,116.69141599999999,40.116194
顺义城 整租·仁和花园一区 2室1厅 南/北        ,仁和花园一区,3300,https://bj.lianjia.com/zufang/BJ2355772871084875776.html,lj,116.69141599999999,40.116194
瀛海 整租·德茂佳苑 1室1厅 南/北        ,德茂佳苑,3500,https://bj.lianjia.com/zufang/BJ2355552951521001472.html,lj,116.44536699999999,39.783174
通州其它 整租·东亚印象台湖 2室2厅 南        ,东亚印象台湖,3500,https://bj.lianjia.com/zufang/BJ2355521279350030336.html,lj,116.652561,39.84457800000001
大兴其它 整租·金色漫香郡南区 2室1厅 南/北        ,金色漫香郡南区,3500,https://bj.lianjia.com/zufang/BJ2354205341375266816.html,lj,116.407133,39.719304
顺义城 整租·建新北区 2室1厅 南        ,建新北区,3200,https://bj.lianjia.com/zufang/BJ2357256557068566528.html,lj,116.66093500000001,40.130052
国展 整租·静安西街 1室1厅 西南        ,静安西街,5800,https://bj.lianjia.com/zufang/BJ2357136169369600000.html,lj,116.450303,39.9658
亚运村小营 整租·北湖渠 1室1厅 南        ,北湖渠,4200,https://bj.lianjia.com/zufang/BJ2354860809177808896.html,lj,116.451866,40.01406400000001
亦庄 整租·通泰国际公馆 1室0厅 南        ,通泰国际公馆,4000,https://bj.lianjia.com/zufang/BJ2356310710361276416.html,lj,116.566673,39.785662
黄村火车站 整租·锦华园 1室1厅 南/北        ,锦华园,3000,https://bj.lianjia.com/zufang/BJ2354151724790317056.html,lj,116.334404,39.72154000000001
科技园区 整租·设计师广场 1室0厅 西北        ,设计师广场,3800,https://bj.lianjia.com/zufang/BJ2354088521410813952.html,lj,116.29154,39.84434
鲁谷 整租·五芳园 1室1厅 南        ,五芳园,4200,https://bj.lianjia.com/zufang/BJ2356398686617214976.html,lj,116.233636,39.904665
五棵松 整租·永定路西里 2室1厅 南/北        ,永定路西里,6200,https://bj.lianjia.com/zufang/BJ2357075038999953408.html,lj,116.26981,39.911415999999996
公主坟 整租·翠微中里 1室0厅 东南        ,翠微中里,5200,https://bj.lianjia.com/zufang/BJ2357078392010186752.html,lj,116.304819,39.92009
木樨园 整租·东木樨园 1室1厅 南        ,东木樨园,4200,https://bj.lianjia.com/zufang/BJ2355657606653018112.html,lj,116.414626,39.864421
顺义城 整租·建新南区 1室1厅 南/西        ,建新南区,2500,https://bj.lianjia.com/zufang/BJ2357188526069514240.html,lj,116.661569,40.126867
海淀北部新区 整租·友谊嘉园一期 2室1厅 南        ,友谊嘉园一期,5700,https://bj.lianjia.com/zufang/BJ2354304121672581120.html,lj,116.267305,40.09282
望京 整租·点击未来 1室0厅 西北        ,点击未来,6000,https://bj.lianjia.com/zufang/BJ2354283460019372032.html,lj,116.479974,39.99339000000001
黄村中 整租·黄村西里 2室1厅 南/北        ,黄村西里,3400,https://bj.lianjia.com/zufang/BJ2357171599696216064.html,lj,116.342634,39.740988
望京 整租·望京西园一区 1室1厅 东南        ,望京西园一区,6000,https://bj.lianjia.com/zufang/BJ2355840235407425536.html,lj,116.482448,40.010851
高碑店 整租·兴隆家园 1室0厅 北        ,兴隆家园,4800,https://bj.lianjia.com/zufang/BJ2357012577919713280.html,lj,116.53078700000002,39.916449
亦庄 整租·上海沙龙 1室0厅 东        ,上海沙龙,3500,https://bj.lianjia.com/zufang/BJ2356519273545080832.html,lj,116.50425700000001,39.795168
长椿街 整租·三庙街 1室1厅 南        ,三庙街,5000,https://bj.lianjia.com/zufang/BJ2356230399463792640.html,lj,116.37260400000001,39.902986
天宫院南 整租·一品嘉园 3室1厅 南/北        ,一品嘉园,3200,https://bj.lianjia.com/zufang/BJ2357067682962489344.html,lj,116.422472,39.676344
定福庄 整租·东领鉴筑 1室1厅 东        ,东领鉴筑,4500,https://bj.lianjia.com/zufang/BJ2354954250401873920.html,lj,116.558986,39.925236
黄村中 整租·黄村西里 2室1厅 南/北        ,黄村西里,3000,https://bj.lianjia.com/zufang/BJ2355013877634170880.html,lj,116.342634,39.740988
潘家园 整租·弘善家园 1室1厅 南        ,弘善家园,5800,https://bj.lianjia.com/zufang/BJ2354775239067975680.html,lj,116.45803500000001,39.875459
首都机场 整租·机场南路东里 2室0厅 南        ,机场南路东里,3200,https://bj.lianjia.com/zufang/BJ2355051085313884160.html,lj,116.60228300000001,40.055969
高碑店 整租·金隅泰和园 2室1厅 南        ,金隅泰和园,6400,https://bj.lianjia.com/zufang/BJ2355554763543674880.html,lj,116.537982,39.9266
良乡 整租·文化路社区 2室1厅 南/北        ,文化路社区,2500,https://bj.lianjia.com/zufang/BJ2355042926167326720.html,lj,116.149583,39.740295
大望路 整租·后现代城A区 1室0厅 北        ,后现代城A区,5000,https://bj.lianjia.com/zufang/BJ2355816657798037504.html,lj,116.49411699999999,39.905751
马驹桥 整租·珠江逸景 2室1厅 东/西        ,珠江逸景,3600,https://bj.lianjia.com/zufang/BJ2357183491982508032.html,lj,116.54956499999999,39.745664
西坝河 整租·西坝河东里 1室1厅 南        ,西坝河东里,4500,https://bj.lianjia.com/zufang/BJ2354973367041802240.html,lj,116.452569,39.97226
六里桥 整租·橙色年代 1室1厅 西        ,橙色年代,5300,https://bj.lianjia.com/zufang/BJ2357067075526336512.html,lj,116.302618,39.893798
临河里 整租·金隅七零九零 2室1厅 南        ,金隅七零九零,3500,https://bj.lianjia.com/zufang/BJ2354805064067465216.html,lj,116.708697,39.887728
杨庄 整租·八角北路11号院 2室1厅 南/北        ,八角北路11号院,3500,https://bj.lianjia.com/zufang/BJ2355792153264783360.html,lj,116.209868,39.923015
万达 整租·玉带河东街435号院 1室1厅 南        ,玉带河东街435号院,2800,https://bj.lianjia.com/zufang/BJ2354097156811390976.html,lj,116.62566399999999,39.939651
管庄 整租·尚东阁 1室0厅 南        ,尚东阁,4500,https://bj.lianjia.com/zufang/BJ2354297007889727488.html,lj,116.590024,39.920117
天宁寺 整租·天宁寺西里 1室1厅 东        ,天宁寺西里,4500,https://bj.lianjia.com/zufang/BJ2354964571787370496.html,lj,116.350123,39.8995
通州北苑 整租·长城国际 1室0厅 东        ,长城国际,3500,https://bj.lianjia.com/zufang/BJ2354224817827487744.html,lj,116.63929399999999,39.900732
李桥 整租·樱花园一区 2室1厅 南/北        ,樱花园一区,3000,https://bj.lianjia.com/zufang/BJ2355870178375909376.html,lj,116.636724,40.031171
潞苑 整租·疃里新村 3室1厅 南/北        ,疃里新村,3500,https://bj.lianjia.com/zufang/BJ2355522491444625408.html,lj,116.701875,39.952928
马驹桥 整租·新海北里 2室1厅 南/北        ,新海北里,3400,https://bj.lianjia.com/zufang/BJ2356555610092208128.html,lj,116.549582,39.765389
三元桥 整租·三源里街 1室1厅 南        ,三源里街,6000,https://bj.lianjia.com/zufang/BJ2354346729064628224.html,lj,116.459758,39.961528
北大地 整租·同盛里 1室1厅 南/北        ,同盛里,4500,https://bj.lianjia.com/zufang/BJ2355677232296632320.html,lj,116.29716699999999,39.856365000000004
和义 整租·东高地 2室1厅 南/北        ,东高地,3700,https://bj.lianjia.com/zufang/BJ2354829516137824256.html,lj,116.41568600000001,39.811433
临河里 整租·金隅自由筑 2房间 东/西        ,金隅自由筑,3500,https://bj.lianjia.com/zufang/BJ2356268112758194176.html,lj,116.708307,39.882928
回龙观 整租·东亚上北中心 1房间 北        ,东亚上北中心,4000,https://bj.lianjia.com/zufang/BJ2356979456431890432.html,lj,116.34810300000001,40.087889000000004
西关环岛 整租·御路园 2室2厅 南/北        ,御路园,3300,https://bj.lianjia.com/zufang/BJ2355783385626189824.html,lj,116.22748899999999,40.224189
天宫院南 整租·众美MIMO公馆 1房间 南        ,众美MIMO公馆,2300,https://bj.lianjia.com/zufang/BJ2356972462153146368.html,lj,116.32931299999998,39.636587
西坝河 整租·光熙门北里 1室1厅 南        ,光熙门北里,5700,https://bj.lianjia.com/zufang/BJ2354095471439921152.html,lj,116.441254,39.972879
玉泉营 整租·刘家村126号院 1室1厅 南        ,刘家村126号院,3300,https://bj.lianjia.com/zufang/BJ2356420559610585088.html,lj,116.31029099999999,39.852129
管庄 整租·京通苑 2室1厅 西南        ,京通苑,5600,https://bj.lianjia.com/zufang/BJ2354342014868799488.html,lj,116.603421,39.919776
古城 整租·古城特钢楼 2室0厅 东/西        ,古城特钢楼,4300,https://bj.lianjia.com/zufang/BJ2354140377092997120.html,lj,116.192645,39.923302
定福庄 整租·三间房南里7号院 3室0厅 南/北        ,三间房南里7号院,4500,https://bj.lianjia.com/zufang/BJ2355673857416757248.html,lj,116.57393300000001,39.915784
双桥 整租·双桥五号井 3室1厅 南/北        ,双桥五号井,4600,https://bj.lianjia.com/zufang/BJ2354251831896981504.html,lj,116.607022,39.893501
首都机场 整租·东平里 3室1厅 南/北        ,东平里,4800,https://bj.lianjia.com/zufang/BJ2355027415606509568.html,lj,116.606408,40.053156
三里屯 整租·中纺东里 1室1厅 东        ,中纺东里,6200,https://bj.lianjia.com/zufang/BJ2356222504525103104.html,lj,116.462622,39.934465
十里堡 整租·八里庄南里 2室1厅 南/北        ,八里庄南里,6000,https://bj.lianjia.com/zufang/BJ2355053059631497216.html,lj,116.50523000000001,39.927909
常营 整租·北京像素南区 1房间 北        ,北京像素南区,4350,https://bj.lianjia.com/zufang/BJ2355668295836762112.html,lj,116.624408,39.932488
和义 整租·三角地 2室1厅 南/北        ,三角地,3500,https://bj.lianjia.com/zufang/BJ2354841089246240768.html,lj,116.42011699999999,39.812537
清河 整租·宝盛北里 1室1厅 南        ,宝盛北里,5700,https://bj.lianjia.com/zufang/BJ2355684701773242368.html,lj,116.374776,40.044383
西坝河 整租·西坝河东里 1室1厅 南        ,西坝河东里,5700,https://bj.lianjia.com/zufang/BJ2356370005773795328.html,lj,116.452569,39.97226
安宁庄 整租·安宁里 1室1厅 东/西        ,安宁里,5000,https://bj.lianjia.com/zufang/BJ2355734996595253248.html,lj,116.33717299999999,40.051868
广安门 整租·车站西街13号院 2室1厅 南/北        ,车站西街13号院,5800,https://bj.lianjia.com/zufang/BJ2356274472287207424.html,lj,116.348004,39.885203999999995
双桥 整租·双桥六号井 2室1厅 南/北        ,双桥六号井,4200,https://bj.lianjia.com/zufang/BJ2354398706449006592.html,lj,116.611153,39.896007
北苑 整租·北苑3号院 2室1厅 南/北        ,北苑3号院,6300,https://bj.lianjia.com/zufang/BJ2356407038072340480.html,lj,116.42785500000001,40.034483
百子湾 整租·沿海赛洛城二期 1室0厅 南        ,沿海赛洛城二期,5800,https://bj.lianjia.com/zufang/BJ2355642543716712448.html,lj,116.51233400000001,39.902245
良乡 整租·建设巷小区 2室1厅 南/北        ,建设巷小区,2300,https://bj.lianjia.com/zufang/BJ2356443378939600896.html,lj,116.15498500000001,39.74544
五道口 整租·圆明园东里 1室0厅 南/北        ,圆明园东里,5500,https://bj.lianjia.com/zufang/BJ2355636840444198912.html,lj,116.32593100000001,40.022234999999995
亦庄 整租·锋创科技园 1房间 东/北        ,锋创科技园,3200,https://bj.lianjia.com/zufang/BJ2357004537581551616.html,lj,116.57478,39.787419
石佛营 整租·炫特嘉园二期 1室1厅 东南        ,炫特嘉园二期,5800,https://bj.lianjia.com/zufang/BJ2356459860189003776.html,lj,116.51295400000001,39.936478
安宁庄 整租·安宁里 2室1厅 南/北        ,安宁里,5400,https://bj.lianjia.com/zufang/BJ2354089155765739520.html,lj,116.33717299999999,40.051868
阜成门 整租·北营房西里 1室0厅 南        ,北营房西里,6000,https://bj.lianjia.com/zufang/BJ2354077735933968384.html,lj,116.355806,39.932528999999995
亦庄 整租·国融国际 1室0厅 南        ,国融国际,3700,https://bj.lianjia.com/zufang/BJ2354414667201519616.html,lj,116.508156,39.807696
顺义城 整租·石园南区 2室1厅 南/北        ,石园南区,3200,https://bj.lianjia.com/zufang/BJ2355002340027154432.html,lj,116.66889499999999,40.112541
惠新西街 整租·胜古南里 1室1厅 东        ,胜古南里,5800,https://bj.lianjia.com/zufang/BJ2354102856216485888.html,lj,116.421566,39.977348
定福庄 整租·定福庄西里2号院 2室1厅 南        ,定福庄西里2号院,4300,https://bj.lianjia.com/zufang/BJ2354077581273473024.html,lj,116.556945,39.922382
亦庄开发区其它 整租·中信新城两限区 1室1厅 南        ,中信新城两限区,3500,https://bj.lianjia.com/zufang/BJ2355019340984107008.html,lj,116.488873,39.788581
良乡 整租·北关东路社区 2室1厅 南        ,北关东路社区,2400,https://bj.lianjia.com/zufang/BJ2356489404245352448.html,lj,116.151882,39.742124
后沙峪 整租·东亚创展国际 1房间 西        ,东亚创展国际,2900,https://bj.lianjia.com/zufang/BJ2357140222946312192.html,lj,116.562693,40.124423
枣园 整租·波普公社 2房间 东        ,波普公社,3500,https://bj.lianjia.com/zufang/BJ2355576871384784896.html,lj,116.337956,39.753944
新宫 整租·南庭新苑南区 2室1厅 南        ,南庭新苑南区,4600,https://bj.lianjia.com/zufang/BJ2354930064652771328.html,lj,116.3755,39.80896
马连洼 整租·梅园 2室1厅 南/北        ,梅园,6000,https://bj.lianjia.com/zufang/BJ2354088365583761408.html,lj,116.28023,40.035647
潘家园 整租·松榆里 2室1厅 南/北        ,松榆里,5700,https://bj.lianjia.com/zufang/BJ2355648354723307520.html,lj,116.476749,39.880086999999996
阎村 整租·天恒乐活城 1室0厅 南        ,天恒乐活城,2300,https://bj.lianjia.com/zufang/BJ2356535366586482688.html,lj,116.086072,39.720542
北苑 整租·中国铁建广场 3房间 北        ,中国铁建广场,5300,https://bj.lianjia.com/zufang/BJ2354114498396430336.html,lj,116.44625,40.048297
果园 整租·新华南路153号院 1室1厅 南/北        ,新华南路153号院,3600,https://bj.lianjia.com/zufang/BJ2355537279772540928.html,lj,116.662241,39.90139600000001
菜户营 整租·乐城 1室0厅 北        ,乐城,4700,https://bj.lianjia.com/zufang/BJ2355794142581768192.html,lj,116.34579599999999,39.882231
学院路 整租·城华园 1室1厅 西南        ,城华园,6200,https://bj.lianjia.com/zufang/BJ2354893740058869760.html,lj,116.357249,40.01745
垡头 整租·翠成馨园 2室1厅 南/北        ,翠成馨园,6400,https://bj.lianjia.com/zufang/BJ2355498950133825536.html,lj,116.513475,39.862823999999996
木樨园 整租·东木樨园 1室1厅 东        ,东木樨园,4300,https://bj.lianjia.com/zufang/BJ2355033747604652032.html,lj,116.414626,39.864421
东坝 整租·单店西村 2室1厅 南/北        ,单店西村,4000,https://bj.lianjia.com/zufang/BJ2355065218306154496.html,lj,116.54203799999999,39.966858
双桥 整租·双桥中路10号南院 2室1厅 南/北        ,双桥中路10号南院,4500,https://bj.lianjia.com/zufang/BJ2355526124273926144.html,lj,116.60768700000001,39.89463
北工大 整租·磨房南里 1室1厅 南        ,磨房南里,6000,https://bj.lianjia.com/zufang/BJ2355558786837782528.html,lj,116.480921,39.884599
瀛海 整租·德茂小区 2室1厅 东        ,德茂小区,2900,https://bj.lianjia.com/zufang/BJ2354362353165795328.html,lj,116.440896,39.787192
常营 整租·住欣家园 2室1厅 西南        ,住欣家园,5800,https://bj.lianjia.com/zufang/BJ2354317363148759040.html,lj,116.617573,39.928731
大兴其它 整租·南海家园五里 1室1厅 南        ,南海家园五里,3300,https://bj.lianjia.com/zufang/BJ2354273912164196352.html,lj,116.495663,39.766416
定福庄 整租·花园闸小区 1室1厅 南/西        ,花园闸小区,4300,https://bj.lianjia.com/zufang/BJ2355721123943432192.html,lj,116.553386,39.910765999999995
大望路 整租·易构空间 1室0厅 北        ,易构空间,6000,https://bj.lianjia.com/zufang/BJ2355090867020103680.html,lj,116.488225,39.905605
北工大 整租·磨房北里 1室1厅 南        ,磨房北里,5000,https://bj.lianjia.com/zufang/BJ2354153445562793984.html,lj,116.47908000000001,39.888027
万寿路 整租·复兴路61号院 1室1厅 南        ,复兴路61号院,5500,https://bj.lianjia.com/zufang/BJ2355813183253381120.html,lj,116.29789699999999,39.915124
大望路 整租·CBD传奇 1室0厅 东北        ,CBD传奇,6300,https://bj.lianjia.com/zufang/BJ2354871152583131136.html,lj,116.49204499999999,39.905703
清河 整租·毛纺厂南小区 2室1厅 南/北        ,毛纺厂南小区,6000,https://bj.lianjia.com/zufang/BJ2354818681948602368.html,lj,116.344718,40.03575
西三旗 整租·润生园 1室1厅 南        ,润生园,4800,https://bj.lianjia.com/zufang/BJ2355530717632667648.html,lj,116.377199,40.07292800000001
石佛营 整租·石佛营西里小区 2室1厅 南/北        ,石佛营西里小区,5900,https://bj.lianjia.com/zufang/BJ2354391068554313728.html,lj,116.505152,39.93938
田村 整租·永达逸家 2室1厅 东        ,永达逸家,6000,https://bj.lianjia.com/zufang/BJ2354383470899773440.html,lj,116.260567,39.934243
清河 整租·燕清源 1室0厅 南        ,燕清源,5300,https://bj.lianjia.com/zufang/BJ2356402459469160448.html,lj,116.347218,40.04004000000001
双桥 整租·双桥六号井 2室1厅 南/北        ,双桥六号井,4200,https://bj.lianjia.com/zufang/BJ2355581076040597504.html,lj,116.611153,39.896007
通州北苑 整租·长城国际 1室0厅 西        ,长城国际,3600,https://bj.lianjia.com/zufang/BJ2356251899256111104.html,lj,116.639294,39.900732
潘家园 整租·弘善家园 1室1厅 南        ,弘善家园,5000,https://bj.lianjia.com/zufang/BJ2354882445478215680.html,lj,116.45803500000001,39.875459
双桥 整租·东柳西里 2室1厅 南        ,东柳西里,4500,https://bj.lianjia.com/zufang/BJ2354969486236590080.html,lj,116.578852,39.907525
果园 整租·果园225号旁门 2室1厅 南        ,果园225号旁门,3600,https://bj.lianjia.com/zufang/BJ2354970548486291456.html,lj,116.659057,39.901799
门头沟其它 整租·石泉砖厂A7区 2室1厅 南        ,石泉砖厂A7区,2300,https://bj.lianjia.com/zufang/BJ2355545605273042944.html,lj,116.09446200000001,39.950777
西山 整租·京泉馨苑 2室1厅 南/北        ,京泉馨苑,5500,https://bj.lianjia.com/zufang/BJ2355520496231530496.html,lj,116.250877,39.971555
看丹桥 整租·韩庄子东里 2室1厅 东/西/北        ,韩庄子东里,4500,https://bj.lianjia.com/zufang/BJ2356292736871055360.html,lj,116.29948200000001,39.845788
常营 整租·万象新天一区 2室2厅 东/西        ,万象新天一区,5000,https://bj.lianjia.com/zufang/BJ2354352790848929792.html,lj,116.599347,39.935541
西坝河 整租·光熙门北里 1室1厅 南        ,光熙门北里,6300,https://bj.lianjia.com/zufang/BJ2355766442995499008.html,lj,116.441254,39.972879
上地 整租·辉煌国际 1房间 南        ,辉煌国际,5800,https://bj.lianjia.com/zufang/BJ2354103406677213184.html,lj,116.30781200000001,40.059245000000004
天宁寺 整租·天宁寺西里 2室1厅 南/北        ,天宁寺西里,6000,https://bj.lianjia.com/zufang/BJ2354996361583403008.html,lj,116.350123,39.8995
石佛营 整租·石佛营西里小区 1室1厅 南/北        ,石佛营西里小区,5000,https://bj.lianjia.com/zufang/BJ2356511481358721024.html,lj,116.505152,39.93938
管庄 整租·管庄西里 2室1厅 南/北        ,管庄西里,4500,https://bj.lianjia.com/zufang/BJ2355684258116272128.html,lj,116.59505,39.919339
和义 整租·东高地 2室1厅 南        ,东高地,3800,https://bj.lianjia.com/zufang/BJ2354171002289922048.html,lj,116.41568600000001,39.811433
鲁谷 整租·六合园 1室1厅 南        ,六合园,4300,https://bj.lianjia.com/zufang/BJ2354958698226655232.html,lj,116.22906200000001,39.903862
科技园区 整租·御景春天 1室1厅 南        ,御景春天,4600,https://bj.lianjia.com/zufang/BJ2355735495818362880.html,lj,116.297532,39.822567
百子湾 整租·大成国际 1室0厅 东        ,大成国际,5500,https://bj.lianjia.com/zufang/BJ2355530476888006656.html,lj,116.49856799999999,39.906029
乔庄 整租·玉桥北里 3室1厅 南/北        ,玉桥北里,3500,https://bj.lianjia.com/zufang/BJ2354941074775998464.html,lj,116.68741999999999,39.89932
双桥 整租·双桥六号井 2室1厅 南/北        ,双桥六号井,4500,https://bj.lianjia.com/zufang/BJ2356238956129165312.html,lj,116.611153,39.896007
西三旗 整租·育新花园 1室1厅 南        ,育新花园,4500,https://bj.lianjia.com/zufang/BJ2355492491995643904.html,lj,116.351822,40.062749
甘家口 整租·西三环北路86号院 1室1厅 南        ,西三环北路86号院,6000,https://bj.lianjia.com/zufang/BJ2356264601043345408.html,lj,116.317352,39.93266
乔庄 整租·玉桥北里 2室1厅 南/北        ,玉桥北里,3300,https://bj.lianjia.com/zufang/BJ2356241842908954624.html,lj,116.68741999999999,39.89932
西坝河 整租·光熙门北里 1室1厅 南        ,光熙门北里,5600,https://bj.lianjia.com/zufang/BJ2355728598335766528.html,lj,116.441254,39.972879
北七家 整租·温泉花园A区 2室1厅 南/北        ,温泉花园A区,3600,https://bj.lianjia.com/zufang/BJ2354210170529120256.html,lj,116.418522,40.133384
定福庄 整租·泰福苑D2区 1室1厅 南        ,泰福苑D2区,5200,https://bj.lianjia.com/zufang/BJ2354228723101999104.html,lj,116.578231,39.927238
欢乐谷 整租·世纪东方城 1室1厅 北        ,世纪东方城,5100,https://bj.lianjia.com/zufang/BJ2354282147923369984.html,lj,116.50130800000001,39.878937
国展 整租·左家庄南里 1室1厅 南        ,左家庄南里,5500,https://bj.lianjia.com/zufang/BJ2354914629974491136.html,lj,116.449067,39.960256
顺义城 整租·建新南区 2室1厅 南/北        ,建新南区,2500,https://bj.lianjia.com/zufang/BJ2352673186090590208.html,lj,116.661569,40.126867
石门营 整租·石门营新区五区 1室1厅 南        ,石门营新区五区,2300,https://bj.lianjia.com/zufang/BJ2352858740279222272.html,lj,116.107551,39.893215999999995
望京 整租·南湖中园二区 1室1厅 西南        ,南湖中园二区,5000,https://bj.lianjia.com/zufang/BJ2353512993100136448.html,lj,116.466504,40.004731
宋家庄 整租·顶秀金颐家园 1室0厅 南        ,顶秀金颐家园,3000,https://bj.lianjia.com/zufang/BJ2352817153511522304.html,lj,116.43844399999999,39.847305
田村 整租·西山国际城 1室1厅 东        ,西山国际城,3300,https://bj.lianjia.com/zufang/BJ2352878432410943488.html,lj,116.23583300000001,39.933046000000004
健翔桥 整租·安翔里小区 1室0厅 东        ,安翔里小区,3200,https://bj.lianjia.com/zufang/BJ2352889849180602368.html,lj,116.389447,39.998682
大兴其它 整租·蓝桥驿苑 1室1厅 南/北        ,蓝桥驿苑,2500,https://bj.lianjia.com/zufang/BJ2352664537528287232.html,lj,116.41185,39.717257000000004
大兴其它 整租·鹿海园三里 1室1厅 南        ,鹿海园三里,3400,https://bj.lianjia.com/zufang/BJ2353569137928192000.html,lj,116.50633400000001,39.765541
回龙观 整租·龙城花园北二区 1室1厅 南        ,龙城花园北二区,3800,https://bj.lianjia.com/zufang/BJ2353657649243373568.html,lj,116.305574,40.094806
沙河 整租·北街家园六区 2室1厅 东        ,北街家园六区,3600,https://bj.lianjia.com/zufang/BJ2352631218371035136.html,lj,116.265505,40.165009999999995
古城 整租·古城南路 2室1厅 南        ,古城南路,3800,https://bj.lianjia.com/zufang/BJ2352765704299610112.html,lj,116.193494,39.916998
大兴其它 整租·首座御园一区二期 1室1厅 南/北        ,首座御园一区二期,3500,https://bj.lianjia.com/zufang/BJ2354116718407983104.html,lj,116.373461,39.750429
劲松 整租·建业苑 2室1厅 南/北        ,建业苑,6300,https://bj.lianjia.com/zufang/BJ2353491804004810752.html,lj,116.470155,39.882853000000004
劲松 整租·垂杨柳南里 2室1厅 南        ,垂杨柳南里,5800,https://bj.lianjia.com/zufang/BJ2353404684812951552.html,lj,116.463426,39.892988
大峪 整租·高家园东街1号院 1室1厅 南        ,高家园东街1号院,2300,https://bj.lianjia.com/zufang/BJ2353635619424436224.html,lj,116.112931,39.934418
通州其它 整租·东亚印象台湖 2室1厅 南        ,东亚印象台湖,3000,https://bj.lianjia.com/zufang/BJ2353585525325578240.html,lj,116.652561,39.84457800000001
常营 整租·苹果派 1室0厅 北        ,苹果派,4800,https://bj.lianjia.com/zufang/BJ2353494243202842624.html,lj,116.584769,39.935584999999996
万寿路 整租·万寿路8号院 2室1厅 南/北        ,万寿路8号院,5500,https://bj.lianjia.com/zufang/BJ2352642399278202880.html,lj,116.296679,39.918959
草桥 整租·玺萌鹏苑 1室0厅 北        ,玺萌鹏苑,4000,https://bj.lianjia.com/zufang/BJ2353501598258839552.html,lj,116.368951,39.857778
顺义其它 整租·馨港庄园三区 1室0厅 南        ,馨港庄园三区,2400,https://bj.lianjia.com/zufang/BJ2353559258639114240.html,lj,116.676805,40.036827
朝阳公园 整租·南十里居 1室1厅 南        ,南十里居,5300,https://bj.lianjia.com/zufang/BJ2353364608229842944.html,lj,116.503599,39.962847
十八里店 整租·鸿博家园B区 1室1厅 南        ,鸿博家园B区,3700,https://bj.lianjia.com/zufang/BJ2352920454177759232.html,lj,116.47913899999999,39.835871999999995
大兴其它 整租·福苑小区 1室1厅 南        ,福苑小区,2990,https://bj.lianjia.com/zufang/BJ2354921617433837568.html,lj,116.35777900000001,39.760551
四惠 整租·梧桐人家 1室1厅 东        ,梧桐人家,5800,https://bj.lianjia.com/zufang/BJ2352663491065946112.html,lj,116.50498300000001,39.924139000000004
三元桥 整租·新源街 1室1厅 南        ,新源街,6000,https://bj.lianjia.com/zufang/BJ2353444037014593536.html,lj,116.460325,39.957628
红庙 整租·慈云寺 1室1厅 南        ,慈云寺,5000,https://bj.lianjia.com/zufang/BJ2352618493691830272.html,lj,116.49767299999999,39.921245
右安门内 整租·右安门内西街 1室1厅 南        ,右安门内西街,4600,https://bj.lianjia.com/zufang/BJ2354875891022307328.html,lj,116.36053700000001,39.879452
梨园 整租·新城阳光 1室0厅 南        ,新城阳光,3500,https://bj.lianjia.com/zufang/BJ2355023644020703232.html,lj,116.67020900000001,39.887696999999996
海淀北部新区 整租·六里屯三区 2室1厅 南/北        ,六里屯三区,6000,https://bj.lianjia.com/zufang/BJ2352732386376294400.html,lj,116.262491,40.06749
三元桥 整租·曙光西里 2室1厅 南/北        ,曙光西里,6200,https://bj.lianjia.com/zufang/BJ2353635885687783424.html,lj,116.45571499999998,39.968077
六里桥 整租·盛今佳园 1房间 北        ,盛今佳园,3500,https://bj.lianjia.com/zufang/BJ2353459017818849280.html,lj,116.314204,39.900209999999994
北大地 整租·正阳小区 2室1厅 东南/南        ,正阳小区,4500,https://bj.lianjia.com/zufang/BJ2352883931478491136.html,lj,117.136794,40.541426
旧宫 整租·菊源南里 1室1厅 南/北        ,菊源南里,3800,https://bj.lianjia.com/zufang/BJ2354904093790838784.html,lj,116.43138400000001,39.793151
玉桥 整租·玉桥南里 1室1厅 南/北        ,玉桥南里,2800,https://bj.lianjia.com/zufang/BJ2353342688746807296.html,lj,116.688709,39.896093
清河 整租·小营东路6号院 1室1厅 南        ,小营东路6号院,4800,https://bj.lianjia.com/zufang/BJ2354819200515842048.html,lj,116.35764099999999,40.043848
新街口 整租·五月华庭 1室0厅 北        ,五月华庭,5500,https://bj.lianjia.com/zufang/BJ2352671293385474048.html,lj,116.375031,39.958162
小汤山 整租·汤HOUSE 3房间 东        ,汤HOUSE,2500,https://bj.lianjia.com/zufang/BJ2352798045915054080.html,lj,116.396943,40.177316
豆各庄 整租·富力又一城C区 2室1厅 南/北        ,富力又一城C区,6000,https://bj.lianjia.com/zufang/BJ2353605620671709184.html,lj,116.56444199999999,39.853055
军博 整租·复兴路乙6号院 1室1厅 南        ,复兴路乙6号院,5500,https://bj.lianjia.com/zufang/BJ2353505558990168064.html,lj,116.33581000000001,39.9111
西红门 整租·阳光星苑 2室1厅 南        ,阳光星苑,4300,https://bj.lianjia.com/zufang/BJ2353423167189688320.html,lj,116.377164,39.800308
潘家园 整租·弘善家园 1室0厅 南        ,弘善家园,5000,https://bj.lianjia.com/zufang/BJ2352932900162781184.html,lj,116.45803500000001,39.875459
乔庄 整租·乔庄东区 1室0厅 东/西        ,乔庄东区,3500,https://bj.lianjia.com/zufang/BJ2355025896924258304.html,lj,116.695053,39.903016
万达 整租·南小园 2室1厅 南/北        ,南小园,3000,https://bj.lianjia.com/zufang/BJ2355690929014718464.html,lj,116.67793300000001,39.905618
鼓楼大街 整租·金隅万科城 1室1厅 西        ,金隅万科城,3600,https://bj.lianjia.com/zufang/BJ2353523597533773824.html,lj,116.242861,40.215697999999996
玉桥 整租·玉桥南里 1室1厅 南        ,玉桥南里,2800,https://bj.lianjia.com/zufang/BJ2353530247871741952.html,lj,116.688709,39.896093
定福庄 整租·美然动力A2区 1室0厅 北        ,美然动力A2区,4500,https://bj.lianjia.com/zufang/BJ2353538561845755904.html,lj,116.564897,39.92904
海淀北部新区 整租·保利西山林语 3室1厅 南/北        ,保利西山林语,5900,https://bj.lianjia.com/zufang/BJ2352742255850700800.html,lj,116.22173400000001,40.044810999999996
石佛营 整租·炫特嘉园一期 1室1厅 东        ,炫特嘉园一期,6400,https://bj.lianjia.com/zufang/BJ2354345720469004288.html,lj,116.51318799999999,39.934977
清河 整租·小营东路5号院 1室1厅 南        ,小营东路5号院,4800,https://bj.lianjia.com/zufang/BJ2353529406334435328.html,lj,116.35910600000001,40.046717
红庙 整租·红庙北里 1室0厅 北        ,红庙北里,4200,https://bj.lianjia.com/zufang/BJ2352633730574581760.html,lj,116.48644499999999,39.924889
菜户营 整租·南滨河路 2室1厅 南        ,南滨河路,5000,https://bj.lianjia.com/zufang/BJ2352920518870433792.html,lj,116.353651,39.885775
甜水园 整租·水碓子东路 1室1厅 南        ,水碓子东路,5500,https://bj.lianjia.com/zufang/BJ2352743761093861376.html,lj,116.479743,39.931269
马驹桥 整租·宏仁家园 2室1厅 南/北        ,宏仁家园,3600,https://bj.lianjia.com/zufang/BJ2354860763023417344.html,lj,116.564978,39.754974
旧宫 整租·万源南里 2室1厅 南/北        ,万源南里,4000,https://bj.lianjia.com/zufang/BJ2355104086720266240.html,lj,116.43218999999999,39.803443
潞苑 整租·华龙小区 1室1厅 南/北        ,华龙小区,2900,https://bj.lianjia.com/zufang/BJ2355691113496985600.html,lj,116.697746,39.936513
石佛营 整租·炫特嘉园二期 1室0厅 西北        ,炫特嘉园二期,4900,https://bj.lianjia.com/zufang/BJ2356424648872706048.html,lj,116.51295400000001,39.936478
鼓楼大街 整租·和平街东里 2室1厅 西        ,和平街东里,3500,https://bj.lianjia.com/zufang/BJ2355512777705537536.html,lj,116.238759,40.230996999999995
新宫 整租·南庭新苑南区 1室1厅 东        ,南庭新苑南区,4000,https://bj.lianjia.com/zufang/BJ2356458552136040448.html,lj,116.3755,39.80896
月坛 整租·月坛北街 1室1厅 北        ,月坛北街,5800,https://bj.lianjia.com/zufang/BJ2355831836808323072.html,lj,116.34129399999999,39.923903
国展 整租·柳芳北里 1室1厅 南        ,柳芳北里,5500,https://bj.lianjia.com/zufang/BJ2355514344051589120.html,lj,116.444225,39.962237
朝阳其它 整租·柏阳景园 2室1厅 南/北        ,柏阳景园,4500,https://bj.lianjia.com/zufang/BJ2352800914055626752.html,lj,116.559347,39.88066
管庄 整租·周井大院 1室1厅 南        ,周井大院,4600,https://bj.lianjia.com/zufang/BJ2354101716146208768.html,lj,116.590349,39.918105
西红门 整租·阳光星苑 2室1厅 南        ,阳光星苑,4300,https://bj.lianjia.com/zufang/BJ2353687686122323968.html,lj,116.377164,39.800308
高碑店 整租·南太平庄北巷 2室1厅 南/北        ,南太平庄北巷,5500,https://bj.lianjia.com/zufang/BJ2354362943833391104.html,lj,116.542359,39.925458
清河 整租·前屯路57号院 2室1厅 南/北        ,前屯路57号院,4800,https://bj.lianjia.com/zufang/BJ2353519273064284160.html,lj,116.355579,40.044128
天宁寺 整租·广安苑一期 2室1厅 南/北        ,广安苑一期,6000,https://bj.lianjia.com/zufang/BJ2354819401582657536.html,lj,116.35123200000001,39.892445
青塔 整租·同馨家园 1室1厅 西        ,同馨家园,4500,https://bj.lianjia.com/zufang/BJ2352849710404083712.html,lj,116.2559,39.884079
甘家口 整租·阜南小区 2室1厅 南/北        ,阜南小区,5800,https://bj.lianjia.com/zufang/BJ2353449554772770816.html,lj,116.33293799999998,39.928194
广安门 整租·荣丰2008 1室0厅 南        ,荣丰2008,4400,https://bj.lianjia.com/zufang/BJ2353361844955258880.html,lj,116.343326,39.90028
中央别墅区 整租·马南里 2室1厅 南/北        ,马南里,6000,https://bj.lianjia.com/zufang/BJ2355874515982229504.html,lj,116.517074,40.028672
中央别墅区 整租·马南里 2室1厅 南/北        ,马南里,6000,https://bj.lianjia.com/zufang/BJ2355874515982229504.html,lj,116.517074,40.028672
马连道 整租·马连道中里 2室1厅 南/北        ,马连道中里,6000,https://bj.lianjia.com/zufang/BJ2354907077266112512.html,lj,116.33833100000001,39.892742
南邵 整租·北郡嘉源 1室1厅 南        ,北郡嘉源,3100,https://bj.lianjia.com/zufang/BJ2352655733692039168.html,lj,116.283799,40.203804
芍药居 整租·芍药居北里 1室1厅 南        ,芍药居北里,6400,https://bj.lianjia.com/zufang/BJ2354817172058423296.html,lj,116.442543,39.991949
马连洼 整租·六郎庄新村 1室1厅 南        ,六郎庄新村,5400,https://bj.lianjia.com/zufang/BJ2354235416917581824.html,lj,116.304327,40.035538
门头沟其它 整租·惠泽家园 2室1厅 南/北        ,惠泽家园,2600,https://bj.lianjia.com/zufang/BJ2355031184808869888.html,lj,116.071679,39.938769
百子湾 整租·沿海赛洛城五期 1室1厅 东        ,沿海赛洛城五期,6200,https://bj.lianjia.com/zufang/BJ2355585981136519168.html,lj,116.513548,39.906028000000006
沙河 整租·北街家园七区 1室1厅 西        ,北街家园七区,3200,https://bj.lianjia.com/zufang/BJ2352877418001743872.html,lj,116.26496100000001,40.168611
武夷花园 整租·水仙园 1室1厅 北        ,水仙园,3200,https://bj.lianjia.com/zufang/BJ2352776143536390144.html,lj,116.70042099999999,39.920289000000004
广安门 整租·朗琴园 1室0厅 西南        ,朗琴园,6000,https://bj.lianjia.com/zufang/BJ2353710519728750592.html,lj,116.34804399999999,39.892548
新街口 整租·五月华庭 1室0厅 南        ,五月华庭,6100,https://bj.lianjia.com/zufang/BJ2354968801877172224.html,lj,116.375031,39.958162
大峪 整租·中门寺南坡小区 1室1厅 南        ,中门寺南坡小区,2400,https://bj.lianjia.com/zufang/BJ2353523780582129664.html,lj,116.096764,39.936499
豆各庄 整租·朝丰家园 2室1厅 南/北        ,朝丰家园,4500,https://bj.lianjia.com/zufang/BJ2354375475339730944.html,lj,116.57166000000001,39.856545000000004
马坡 整租·新马家园 1室1厅 南        ,新马家园,2100,https://bj.lianjia.com/zufang/BJ2352618887016882176.html,lj,116.659123,40.191852000000004
马坡 整租·新马家园 2室1厅 南        ,新马家园,2800,https://bj.lianjia.com/zufang/BJ2356304406288269312.html,lj,116.659123,40.191852000000004
潘家园 整租·弘善家园 1室1厅 南        ,弘善家园,5500,https://bj.lianjia.com/zufang/BJ2355724875915591680.html,lj,116.45803500000001,39.875459
观音寺 整租·观音寺南里 2室1厅 南/北        ,观音寺南里,2800,https://bj.lianjia.com/zufang/BJ2355128904039006208.html,lj,116.355699,39.728155
豆各庄 整租·朝丰家园 2室1厅 南        ,朝丰家园,4500,https://bj.lianjia.com/zufang/BJ2355552697664946176.html,lj,116.57166000000001,39.856545000000004
大兴其它 整租·南海家园五里 1室1厅 东南        ,南海家园五里,3000,https://bj.lianjia.com/zufang/BJ2353479941741887488.html,lj,116.495663,39.766416
五里店 整租·五里店南里 2室1厅 南/北        ,五里店南里,4000,https://bj.lianjia.com/zufang/BJ2354183272222957568.html,lj,116.265502,39.86137700000001
劲松 整租·劲松三区 2室1厅 东南        ,劲松三区,5800,https://bj.lianjia.com/zufang/BJ2352818867581231104.html,lj,116.465115,39.88902
清河 整租·小营东路5号院 2室1厅 南        ,小营东路5号院,5500,https://bj.lianjia.com/zufang/BJ2354086572376735744.html,lj,116.35910600000001,40.046717
顺义城 整租·石园北区 2室2厅 南/北        ,石园北区,3300,https://bj.lianjia.com/zufang/BJ2352787203773702144.html,lj,116.67084399999999,40.12035
宋家庄 整租·日新家园 1室1厅 南/北        ,日新家园,4500,https://bj.lianjia.com/zufang/BJ2353534541136150528.html,lj,116.431671,39.845669
鼓楼大街 整租·北环里小区 1室1厅 西        ,北环里小区,3300,https://bj.lianjia.com/zufang/BJ2354066280443035648.html,lj,116.23466699999999,40.233238
清河 整租·燕清源 1室0厅 跃层 南        ,燕清源,5500,https://bj.lianjia.com/zufang/BJ2353517085222502400.html,lj,116.347218,40.04004000000001
黄村中 整租·黄村西里 2室1厅 南/北        ,黄村西里,3000,https://bj.lianjia.com/zufang/BJ2354840910065303552.html,lj,116.342634,39.740988
广安门 整租·车站西街15号院 2室1厅 南/北        ,车站西街15号院,5600,https://bj.lianjia.com/zufang/BJ2352775136769482752.html,lj,116.34546200000001,39.885478000000006
马坡 整租·香悦四季 1房间 东        ,香悦四季,2000,https://bj.lianjia.com/zufang/BJ2355116927984074752.html,lj,116.66266999999999,40.186692
农展馆 整租·枣营北里 1室1厅 南        ,枣营北里,5900,https://bj.lianjia.com/zufang/BJ2356273751957979136.html,lj,116.47724,39.952517
豆各庄 整租·朝丰家园 2室1厅 南/北        ,朝丰家园,4400,https://bj.lianjia.com/zufang/BJ2354889927328022528.html,lj,116.57166000000001,39.856545000000004
昌平其它 整租·毛条小区 2室1厅 南/北        ,毛条小区,2900,https://bj.lianjia.com/zufang/BJ2354169388858343424.html,lj,116.25600700000001,40.120139
大兴其它 整租·罗奇营C区 2室1厅 南        ,罗奇营C区,3300,https://bj.lianjia.com/zufang/BJ2352780170722541568.html,lj,116.30161000000001,39.704798
苹果园 整租·金福苑 1室1厅 东        ,金福苑,3500,https://bj.lianjia.com/zufang/BJ2352747628712181760.html,lj,116.176856,39.937936
定福庄 整租·天泰定福苑 2室1厅 南/北        ,天泰定福苑,6000,https://bj.lianjia.com/zufang/BJ2355730158608195584.html,lj,116.56390800000001,39.925519
亚运村 整租·安慧里三区 1室1厅 南        ,安慧里三区,5400,https://bj.lianjia.com/zufang/BJ2353436805825052672.html,lj,116.41638700000001,39.997214
古城 整租·古城路小区 1室1厅 南        ,古城路小区,3600,https://bj.lianjia.com/zufang/BJ2353364579146268672.html,lj,116.19649799999999,39.925476
南沙滩 整租·公安局宿舍 1室1厅 东        ,公安局宿舍,6000,https://bj.lianjia.com/zufang/BJ2354804379422834688.html,lj,116.373726,40.0122
玉桥 整租·柳岸方园 1室1厅 北        ,柳岸方园,3400,https://bj.lianjia.com/zufang/BJ2353417487556812800.html,lj,116.684993,39.894375
学院路 整租·清华东路27号院 1室1厅 南/北        ,清华东路27号院,5950,https://bj.lianjia.com/zufang/BJ2352696551987478528.html,lj,116.356876,40.007507000000004
海淀北部新区 整租·首创悦榕汇 2室1厅 南/北        ,首创悦榕汇,5900,https://bj.lianjia.com/zufang/BJ2352783374709424128.html,lj,116.253821,40.08453
三元桥 整租·顺源里 1室1厅 南        ,顺源里,6000,https://bj.lianjia.com/zufang/BJ2352802513217912832.html,lj,116.463575,39.954828000000006
垡头 整租·垡头北里 2室1厅 南/北        ,垡头北里,4500,https://bj.lianjia.com/zufang/BJ2352829993971105792.html,lj,116.51738999999999,39.874292
天宫院南 整租·御园E区 1室1厅 南        ,御园E区,2000,https://bj.lianjia.com/zufang/BJ2356306007077945344.html,lj,116.32942800000001,39.632252
看丹桥 整租·南开西里 1室1厅 东        ,南开西里,3700,https://bj.lianjia.com/zufang/BJ2354809491783942144.html,lj,116.286754,39.847355
东关 整租·清秀园北区 1室0厅 东        ,清秀园北区,3200,https://bj.lianjia.com/zufang/BJ2352628924246130688.html,lj,116.250845,40.223833
公主坟 整租·普惠南里 1室1厅 南        ,普惠南里,5800,https://bj.lianjia.com/zufang/BJ2354902519341121536.html,lj,116.313868,39.918033
马家堡 整租·嘉园一里 1室1厅 东        ,嘉园一里,4500,https://bj.lianjia.com/zufang/BJ2353646065381031936.html,lj,116.37161699999999,39.85785900000001
和义 整租·南苑北里三区 1室1厅 南        ,南苑北里三区,3400,https://bj.lianjia.com/zufang/BJ2353404832628613120.html,lj,116.40170800000001,39.816943
和义 整租·和义西里三区 1室1厅 南/北        ,和义西里三区,3800,https://bj.lianjia.com/zufang/BJ2352697148610715648.html,lj,116.40213700000001,39.821078
西三旗 整租·新康园 2室1厅 西        ,新康园,5600,https://bj.lianjia.com/zufang/BJ2353403692893609984.html,lj,116.35874,40.071037
青塔 整租·青塔东里 1室1厅 南/北        ,青塔东里,3900,https://bj.lianjia.com/zufang/BJ2354164742215434240.html,lj,116.276954,39.89996
马坡 整租·泰和谊园 2室1厅 南/北        ,泰和谊园,3200,https://bj.lianjia.com/zufang/BJ2355102474253377536.html,lj,116.655451,40.183653
马驹桥 整租·融科香雪兰溪 3室1厅 南/北        ,融科香雪兰溪,3500,https://bj.lianjia.com/zufang/BJ2352969998227472384.html,lj,116.54391899999999,39.749494
管庄 整租·京通苑 1室1厅 南        ,京通苑,4600,https://bj.lianjia.com/zufang/BJ2354085995097628672.html,lj,116.603421,39.919776
双井 整租·百环家园 1室1厅 北        ,百环家园,6400,https://bj.lianjia.com/zufang/BJ2354992910652948480.html,lj,116.47143899999999,39.896423
广安门 整租·远见名苑 1室0厅 西        ,远见名苑,5800,https://bj.lianjia.com/zufang/BJ2354226384391643136.html,lj,116.34498500000001,39.891739
首都机场 整租·南平里 1室1厅 南/北        ,南平里,3400,https://bj.lianjia.com/zufang/BJ2353596156569206784.html,lj,116.603274,40.049671000000004
酒仙桥 整租·高家园四区 1室1厅 南        ,高家园四区,5700,https://bj.lianjia.com/zufang/BJ2355070765381976064.html,lj,116.488522,39.98620800000001
门头沟其它 整租·石泉砖厂A7区 1室1厅 南        ,石泉砖厂A7区,2100,https://bj.lianjia.com/zufang/BJ2352694181333303296.html,lj,116.09446200000001,39.950777
和义 整租·红星楼 2室1厅 南/北        ,红星楼,4200,https://bj.lianjia.com/zufang/BJ2355699399436271616.html,lj,116.43411699999999,39.811871000000004
劲松 整租·武圣东里 2室1厅 南/北        ,武圣东里,6000,https://bj.lianjia.com/zufang/BJ2354252828714999808.html,lj,116.476446,39.88357
天宁寺 整租·广安门外车站东街 2室1厅 南/北        ,广安门外车站东街,5200,https://bj.lianjia.com/zufang/BJ2354057676885344256.html,lj,116.35251699999999,39.891585
木樨地 整租·西便门西里 1室1厅 北        ,西便门西里,5700,https://bj.lianjia.com/zufang/BJ2352716321865089024.html,lj,116.35688200000001,39.904271
甘露园 整租·甘露园南里 2室1厅 南/北        ,甘露园南里,6000,https://bj.lianjia.com/zufang/BJ2352894992672104448.html,lj,116.52342900000001,39.92104000000001
临河里 整租·金隅自由筑 2房间 东        ,金隅自由筑,2800,https://bj.lianjia.com/zufang/BJ2355649996524888064.html,lj,116.708307,39.882928
双桥 整租·金隅康惠园 2室1厅 西        ,金隅康惠园,5600,https://bj.lianjia.com/zufang/BJ2354977413764481024.html,lj,116.586623,39.911124
玉泉营 整租·育芳园 1室1厅 南        ,育芳园,4200,https://bj.lianjia.com/zufang/BJ2354842228922523648.html,lj,116.32724099999999,39.854112
后沙峪 整租·清岚花园汉民区 1室1厅 南/北        ,清岚花园汉民区,2800,https://bj.lianjia.com/zufang/BJ2353643421216292864.html,lj,116.55043899999998,40.12648400000001
定慧寺 整租·八里庄北里 1室1厅 南/西        ,八里庄北里,6200,https://bj.lianjia.com/zufang/BJ2352615889574305792.html,lj,116.29813,39.935532
临河里 整租·久居雅园 1室1厅 北        ,久居雅园,3200,https://bj.lianjia.com/zufang/BJ2353678474482286592.html,lj,116.67533999999999,39.875581
通州其它 整租·东亚环球国际 2房间 西        ,东亚环球国际,2500,https://bj.lianjia.com/zufang/BJ2352772962383839232.html,lj,116.649753,39.844695
北七家 整租·冠雅苑 2室1厅 南/北        ,冠雅苑,4000,https://bj.lianjia.com/zufang/BJ2353533882303266816.html,lj,116.41454499999999,40.120929
定福庄 整租·定福庄西里2号院 2室1厅 东/西        ,定福庄西里2号院,5400,https://bj.lianjia.com/zufang/BJ2354203061049892864.html,lj,116.556945,39.922382
右安门外 整租·玉林里小区 1室1厅 东        ,玉林里小区,4500,https://bj.lianjia.com/zufang/BJ2353427239842095104.html,lj,116.36432099999999,39.869289
东坝 整租·金隅景和园 2室1厅 南/北        ,金隅景和园,5500,https://bj.lianjia.com/zufang/BJ2355057207688830976.html,lj,116.55713300000001,39.958265000000004
双桥 整租·朝阳旺角 2室1厅 南/北        ,朝阳旺角,5100,https://bj.lianjia.com/zufang/BJ2356371700364615680.html,lj,116.59474099999998,39.910826
海淀北部新区 整租·友谊嘉园三期 2室1厅 南/北        ,友谊嘉园三期,5800,https://bj.lianjia.com/zufang/BJ2356450123355267072.html,lj,116.262876,40.091638
管庄 整租·管庄西里 2室1厅 南        ,管庄西里,6000,https://bj.lianjia.com/zufang/BJ2356360489233293312.html,lj,116.59505,39.919339
潘家园 整租·松榆西里 2室1厅 南/北        ,松榆西里,6200,https://bj.lianjia.com/zufang/BJ2356400959678324736.html,lj,116.47107700000001,39.879461
石门营 整租·石门营新区六区 1室1厅 南        ,石门营新区六区,2300,https://bj.lianjia.com/zufang/BJ2355524595651715072.html,lj,116.110069,39.890581
顺义城 整租·石园东区 2室1厅 南/北        ,石园东区,3200,https://bj.lianjia.com/zufang/BJ2356535048725348352.html,lj,116.673546,40.116508
亦庄 整租·林肯公园 1房间 南        ,林肯公园,4200,https://bj.lianjia.com/zufang/BJ2356403068381167616.html,lj,116.50240600000001,39.812603
顺义其它 整租·仁悦居9号院 2室1厅 南/北        ,仁悦居9号院,3000,https://bj.lianjia.com/zufang/BJ2355596468699799552.html,lj,116.674989,40.106153000000006
西北旺 整租·秋露园 1室1厅 南        ,秋露园,5800,https://bj.lianjia.com/zufang/BJ2356465413841494016.html,lj,116.26905900000001,40.058054
国展 整租·静安里 1室1厅 南        ,静安里,5700,https://bj.lianjia.com/zufang/BJ2356408348976619520.html,lj,116.453107,39.96546
海淀北部新区 整租·友谊嘉园一期 2室1厅 南/北        ,友谊嘉园一期,5700,https://bj.lianjia.com/zufang/BJ2356467136332824576.html,lj,116.26730500000001,40.09282
看丹桥 整租·造甲街 2室1厅 南/北        ,造甲街,4500,https://bj.lianjia.com/zufang/BJ2356481781441495040.html,lj,116.302442,39.849784
卢沟桥 整租·晓月家园 2室1厅 南        ,晓月家园,4000,https://bj.lianjia.com/zufang/BJ2356367576634245120.html,lj,116.250353,39.841059
旧宫 整租·万源南里 2室1厅 南/北        ,万源南里,3900,https://bj.lianjia.com/zufang/BJ2355723501349896192.html,lj,116.43218999999999,39.803443
卢沟桥 整租·晓月家园 2室1厅 南        ,晓月家园,4000,https://bj.lianjia.com/zufang/BJ2356367576634245120.html,lj,116.250353,39.841059
四惠 整租·八里庄东里 2室1厅 东/西        ,八里庄东里,5600,https://bj.lianjia.com/zufang/BJ2356399328924270592.html,lj,116.505509,39.923956
国展 整租·静安里 1室1厅 南        ,静安里,5700,https://bj.lianjia.com/zufang/BJ2356408348976619520.html,lj,116.453107,39.96546
顺义其它 整租·仁悦居9号院 2室1厅 南/北        ,仁悦居9号院,3000,https://bj.lianjia.com/zufang/BJ2355596468699799552.html,lj,116.674989,40.106153000000006
西北旺 整租·秋露园 1室1厅 南        ,秋露园,5800,https://bj.lianjia.com/zufang/BJ2356465413841494016.html,lj,116.26905900000001,40.058054
马驹桥 整租·珠江逸景 2室1厅 南        ,珠江逸景,3450,https://bj.lianjia.com/zufang/BJ2355669417352249344.html,lj,116.54956499999999,39.745664
北工大 整租·磨房南里 1室1厅 西/北        ,磨房南里,5200,https://bj.lianjia.com/zufang/BJ2356276647595868160.html,lj,116.480921,39.884599
潞苑 整租·四海公寓 3室1厅 南/北        ,四海公寓,3300,https://bj.lianjia.com/zufang/BJ2355674052729257984.html,lj,116.703248,39.956671
武夷花园 整租·上营新村 1室1厅 南        ,上营新村,3300,https://bj.lianjia.com/zufang/BJ2355709309914464256.html,lj,116.68705,39.909482000000004
西三旗 整租·建材城东二里 2室1厅 南/北        ,建材城东二里,5800,https://bj.lianjia.com/zufang/BJ2355740051964428288.html,lj,116.381805,40.069466999999996
亦庄开发区其它 整租·南海雅苑南区 2室1厅 西南        ,南海雅苑南区,3800,https://bj.lianjia.com/zufang/BJ2356315077730107392.html,lj,116.48464399999999,39.789895
双桥 整租·双柳巷 2室1厅 南/北        ,双柳巷,5100,https://bj.lianjia.com/zufang/BJ2355758160713105408.html,lj,116.587018,39.912749
新街口 整租·五月华庭 1室0厅 北        ,五月华庭,5300,https://bj.lianjia.com/zufang/BJ2356294069619539968.html,lj,116.375031,39.958162
北苑 整租·北苑家园茉藜园 1室1厅 西南        ,北苑家园茉藜园,6400,https://bj.lianjia.com/zufang/BJ2356284100505247744.html,lj,116.430531,40.045572
潘家园 整租·东架松 2室1厅 南        ,东架松,5900,https://bj.lianjia.com/zufang/BJ2356230085822398464.html,lj,116.463773,39.883859
马坡 整租·顺兴街17号院 3室1厅 南/北        ,顺兴街17号院,2900,https://bj.lianjia.com/zufang/BJ2355696446193811456.html,lj,116.65484199999999,40.190476000000004
马坡 整租·佳和宜园 2室1厅 南        ,佳和宜园,2800,https://bj.lianjia.com/zufang/BJ2356283891662733312.html,lj,116.655346,40.180339000000004
六铺炕 整租·黄寺大街24号院 1室1厅 南        ,黄寺大街24号院,6000,https://bj.lianjia.com/zufang/BJ2355592392700338176.html,lj,116.392877,39.96739
定福庄 整租·三间房南里4号院 2室1厅 南/北        ,三间房南里4号院,5000,https://bj.lianjia.com/zufang/BJ2356285325434683392.html,lj,116.57550900000001,39.919227
亚运村 整租·安苑北里 1室1厅 南        ,安苑北里,6400,https://bj.lianjia.com/zufang/BJ2355662314297884672.html,lj,116.41559699999999,39.991514
北工大 整租·松榆东里 1室1厅 西        ,松榆东里,4900,https://bj.lianjia.com/zufang/BJ2356321326153089024.html,lj,116.48144599999999,39.878969
大兴其它 整租·金色漫香郡北区 2室1厅 南        ,金色漫香郡北区,3400,https://bj.lianjia.com/zufang/BJ2356272373667741696.html,lj,116.406722,39.72146
潘家园 整租·华威西里 2室1厅 南        ,华威西里,6100,https://bj.lianjia.com/zufang/BJ2355727741371809792.html,lj,116.460146,39.879538000000004
瀛海 整租·中国铁建兴盛嘉苑 1室0厅 南        ,中国铁建兴盛嘉苑,3200,https://bj.lianjia.com/zufang/BJ2353544086466084864.html,lj,116.44946100000001,39.779215
长椿街 整租·长椿街 1室1厅 南        ,长椿街,6000,https://bj.lianjia.com/zufang/BJ2354299719297548288.html,lj,116.36991100000002,39.90534
大兴其它 整租·天堂河 2室1厅 东/西        ,天堂河,3300,https://bj.lianjia.com/zufang/BJ2354102093540753408.html,lj,116.325575,39.577996
西北旺 整租·春晖园 1室1厅 南        ,春晖园,5600,https://bj.lianjia.com/zufang/BJ2353523252577976320.html,lj,116.273903,40.057084
常营 整租·常楹公元自由派 1房间 西        ,常楹公元自由派,4500,https://bj.lianjia.com/zufang/BJ2354075071804342272.html,lj,116.603702,39.926373
万寿路 整租·万寿路西街11号院 1室1厅 南        ,万寿路西街11号院,5200,https://bj.lianjia.com/zufang/BJ2355070292390313984.html,lj,116.29300900000001,39.919028999999995
双桥 整租·远洋一方新悦一期 2室1厅 南        ,远洋一方新悦一期,6200,https://bj.lianjia.com/zufang/BJ2354999644481650688.html,lj,116.614626,39.903693
甘家口 整租·景王坟 1室1厅 西北        ,景王坟,6000,https://bj.lianjia.com/zufang/BJ2353619428379738112.html,lj,116.33335500000001,39.935037
和义 整租·三角地 2室1厅 南/北        ,三角地,4200,https://bj.lianjia.com/zufang/BJ2352657286230712320.html,lj,116.42011699999999,39.812537
石景山其它 整租·高井 2室1厅 南        ,高井,3400,https://bj.lianjia.com/zufang/BJ2353360587637137408.html,lj,116.141508,39.951177
东关 整租·清秀园北区 1室0厅 东        ,清秀园北区,3400,https://bj.lianjia.com/zufang/BJ2354081229151666176.html,lj,116.250845,40.223833
双桥 整租·远洋一方花语苑 2室1厅 西/北        ,远洋一方花语苑,6000,https://bj.lianjia.com/zufang/BJ2354791362047778816.html,lj,116.606531,39.906115
大峪 整租·大峪小白楼 1室0厅 南        ,大峪小白楼,2500,https://bj.lianjia.com/zufang/BJ2352935045909987328.html,lj,116.111246,39.941476
白石桥 整租·钢铁研究院 2室1厅 南        ,钢铁研究院,6000,https://bj.lianjia.com/zufang/BJ2353349875988971520.html,lj,116.486424,40.139679
海淀北部新区 整租·首创悦榕汇 2室1厅 南/北        ,首创悦榕汇,6000,https://bj.lianjia.com/zufang/BJ2353338754296717312.html,lj,116.253821,40.08453
石佛营 整租·十里堡北区 2室1厅 南        ,十里堡北区,5900,https://bj.lianjia.com/zufang/BJ2352698581544615936.html,lj,116.509583,39.93675800000001
南沙滩 整租·科学园南里七区 1室1厅 南        ,科学园南里七区,5500,https://bj.lianjia.com/zufang/BJ2353441981578870784.html,lj,116.39211399999999,40.00217
新宫 整租·诚苑南里 2室1厅 南        ,诚苑南里,4400,https://bj.lianjia.com/zufang/BJ2354271190362619904.html,lj,116.379535,39.809422999999995
顺义城 整租·仁和花园二区 2室1厅 南/北        ,仁和花园二区,3300,https://bj.lianjia.com/zufang/BJ2354817126281789440.html,lj,116.68363799999999,40.116279
顺义城 整租·石园西区 2室1厅 东南        ,石园西区,3100,https://bj.lianjia.com/zufang/BJ2354938624690634752.html,lj,116.67014099999999,40.11692100000001
管庄 整租·京通苑 2室1厅 西南        ,京通苑,5200,https://bj.lianjia.com/zufang/BJ2352825054305730560.html,lj,116.603421,39.919776
青塔 整租·小屯路8号院 2室1厅 南/北        ,小屯路8号院,4000,https://bj.lianjia.com/zufang/BJ2357034594458402816.html,lj,116.25990900000001,39.897495
旧宫 整租·有德家苑2号院 2室1厅 南/北        ,有德家苑2号院,4400,https://bj.lianjia.com/zufang/BJ2356564000227475456.html,lj,116.379185,39.954765
清河 整租·怡清园 2室1厅 西北        ,怡清园,6000,https://bj.lianjia.com/zufang/BJ2354313765853331456.html,lj,116.367011,40.04362800000001
首都机场 整租·南平东里 3室1厅 南        ,南平东里,5400,https://bj.lianjia.com/zufang/BJ2356432635431231488.html,lj,116.60691399999999,40.050859
北苑 整租·华发颐园 1室0厅 东        ,华发颐园,6000,https://bj.lianjia.com/zufang/BJ2353461949745856512.html,lj,116.421947,40.050164
常营 整租·北辰福第六号院 1室0厅 南        ,北辰福第六号院,5000,https://bj.lianjia.com/zufang/BJ2357015683843768320.html,lj,116.609632,39.932459
海淀北部新区 整租·六里屯五区 1室1厅 东/西        ,六里屯五区,5200,https://bj.lianjia.com/zufang/BJ2352946196400062464.html,lj,116.257456,40.069125
豆各庄 整租·朝丰家园 2室1厅 南/北        ,朝丰家园,4600,https://bj.lianjia.com/zufang/BJ2353574644654809088.html,lj,116.57166000000001,39.856545000000004
玉泉营 整租·葛村西里 2室1厅 南/北        ,葛村西里,4500,https://bj.lianjia.com/zufang/BJ2352610031356084224.html,lj,116.31448200000001,39.853084
西直门 整租·铁狮子巷 1室1厅 北        ,铁狮子巷,3700,https://bj.lianjia.com/zufang/BJ2342663458187132928.html,lj,116.36452,39.948040999999996
南口 整租·南厂住宅西区 2室1厅 南/北        ,南厂住宅西区,1800,https://bj.lianjia.com/zufang/BJ2247043209010085888.html,lj,116.130524,40.250207
万达 整租·帅府园 2室1厅 南/北        ,帅府园,3500,https://bj.lianjia.com/zufang/BJ2329482104787697664.html,lj,116.65306100000001,39.909034999999996
紫竹桥 整租·北京市人民检察院宿舍 1室0厅 北        ,北京市人民检察院宿舍,2600,https://bj.lianjia.com/zufang/BJ2336711928807686144.html,lj,116.322705,39.944865
石佛营 整租·八里庄北里小区 2室1厅 南/北        ,八里庄北里小区,6000,https://bj.lianjia.com/zufang/BJ2340588279088824320.html,lj,116.50684199999999,39.931622999999995
首都机场 整租·南平里 2室1厅 南/北        ,南平里,3800,https://bj.lianjia.com/zufang/BJ2325861545026002944.html,lj,116.603274,40.049671000000004
果园 整租·果园西小区 1室1厅 南/北        ,果园西小区,3000,https://bj.lianjia.com/zufang/BJ2348534135511334912.html,lj,116.83537,40.378028
常营 整租·苹果派 1室1厅 北        ,苹果派,4800,https://bj.lianjia.com/zufang/BJ2329605321351233536.html,lj,116.584769,39.935584999999996
甘家口 整租·甘家口8号院 1室1厅 西        ,甘家口8号院,3600,https://bj.lianjia.com/zufang/BJ2346195360839639040.html,lj,116.339409,39.931119
宣武门 整租·和平门外西里 1室0厅 南        ,和平门外西里,3200,https://bj.lianjia.com/zufang/BJ2331101855125610496.html,lj,116.38831100000002,39.9055
马驹桥 整租·东亚瑞晶苑 2室1厅 南        ,东亚瑞晶苑,3000,https://bj.lianjia.com/zufang/BJ2335519986178588672.html,lj,116.549682,39.750023999999996
亚运村 整租·慧忠里 1室1厅 东/西        ,慧忠里,5600,https://bj.lianjia.com/zufang/BJ2341898937969426432.html,lj,116.410182,40.00307
和义 整租·红星楼 1室1厅 南/北        ,红星楼,2500,https://bj.lianjia.com/zufang/BJ2296504966950420480.html,lj,116.43411699999999,39.811871000000004
九棵树(家乐福) 整租·大方居 2室1厅 东        ,大方居,2500,https://bj.lianjia.com/zufang/BJ2338867492405125120.html,lj,116.63632700000001,39.881978000000004
万达 整租·如意园 1室1厅 南/北        ,如意园,3500,https://bj.lianjia.com/zufang/BJ2316730974387576832.html,lj,116.67373300000001,39.91715900000001
通州北苑 整租·长城国际 1室0厅 东        ,长城国际,2950,https://bj.lianjia.com/zufang/BJ2345381291228135424.html,lj,116.63929399999999,39.900732
苹果园 整租·金顶街四区 2室0厅 东南        ,金顶街四区,3200,https://bj.lianjia.com/zufang/BJ2350794985357983744.html,lj,116.17941,39.931506
回龙观 整租·慧华苑 1室1厅 北        ,慧华苑,3100,https://bj.lianjia.com/zufang/BJ2346884979042566144.html,lj,116.32224599999999,40.082827
建国门外 整租·建国里 1室1厅 南        ,建国里,5600,https://bj.lianjia.com/zufang/BJ2249962482704072704.html,lj,116.44682399999999,39.911279
果园 整租·果园235号院 2室1厅 南/北        ,果园235号院,3400,https://bj.lianjia.com/zufang/BJ2341286679291101184.html,lj,116.65529699999999,39.902698
玉泉营 整租·三环新城6号院 0室0厅 南        ,三环新城6号院,420,https://bj.lianjia.com/zufang/BJ2318583500300615680.html,lj,116.317044,39.854748
芍药居 整租·芍药居4号院 2室1厅 东        ,芍药居4号院,6200,https://bj.lianjia.com/zufang/BJ2299030938954235904.html,lj,116.44039699999999,39.988696999999995
刘家窑 整租·横七条 1室1厅 东/西        ,横七条,3600,https://bj.lianjia.com/zufang/BJ2338875106442887168.html,lj,116.43021200000001,39.862505
惠新西街 整租·惠新里小区 2室1厅 东/南/北        ,惠新里小区,5800,https://bj.lianjia.com/zufang/BJ2339677043593322496.html,lj,116.426895,39.987716
甜水园 整租·六里屯北里 1室1厅 南        ,六里屯北里,5600,https://bj.lianjia.com/zufang/BJ2338334576042590208.html,lj,116.48098200000001,39.93714
中关村 整租·东南小区 1室1厅 西北        ,东南小区,5200,https://bj.lianjia.com/zufang/BJ2352197453895172096.html,lj,116.394574,39.90074
宋家庄 整租·3G木兰 1室0厅 西        ,3G木兰,3600,https://bj.lianjia.com/zufang/BJ2350719586007261184.html,lj,116.440873,39.853654999999996
天通苑 整租·天通苑东二区 2室1厅 南/北        ,天通苑东二区,4000,https://bj.lianjia.com/zufang/BJ2338304505525051392.html,lj,116.446,40.0713
南口 整租·南厂住宅西区 2室1厅 南/北        ,南厂住宅西区,2000,https://bj.lianjia.com/zufang/BJ2319296364234162176.html,lj,116.130524,40.250207
回龙观 整租·领秀慧谷D区 1室0厅 东/南/西/北        ,领秀慧谷D区,450,https://bj.lianjia.com/zufang/BJ2341203295210840064.html,lj,116.307222,40.105496
古城 整租·十万坪 1室1厅 南/北        ,十万坪,2500,https://bj.lianjia.com/zufang/BJ2332551769085198336.html,lj,116.189849,39.914211
马连道 整租·三义西里 1室1厅 南        ,三义西里,5100,https://bj.lianjia.com/zufang/BJ2352090868158578688.html,lj,116.334783,39.894475
果园 整租·苏荷时代 1室1厅 南        ,苏荷时代,3600,https://bj.lianjia.com/zufang/BJ2341035867872690176.html,lj,116.651468,39.897807
望京 整租·花家地小区 1室1厅 南        ,花家地小区,5000,https://bj.lianjia.com/zufang/BJ2339709589580693504.html,lj,116.47697,39.990713
北大地 整租·正阳大街 2室1厅 南        ,正阳大街,3500,https://bj.lianjia.com/zufang/BJ2299314958329970688.html,lj,116.288937,39.852831
马家堡 整租·富卓苑 1室0厅 西        ,富卓苑,3900,https://bj.lianjia.com/zufang/BJ2337431507980779520.html,lj,116.381703,39.843816
芍药居 整租·芍药居5号院 1室1厅 南        ,芍药居5号院,4800,https://bj.lianjia.com/zufang/BJ2319434187116904448.html,lj,116.438552,39.98785
长阳 整租·加州水郡金桥国际酒店 1室0厅 东        ,加州水郡金桥国际酒店,1800,https://bj.lianjia.com/zufang/BJ2318614947816275968.html,lj,116.177462,39.776003
丰台其它 整租·领秀翡翠墅 5室2厅 南/北        ,领秀翡翠墅,3000,https://bj.lianjia.com/zufang/BJ2262117539121471488.html,lj,116.170207,39.80709
和平里 整租·砖角楼南里 1室1厅 北        ,砖角楼南里,3800,https://bj.lianjia.com/zufang/BJ2268631107736182784.html,lj,116.43765900000001,39.959391
蒲黄榆 整租·蒲黄榆三里 1室1厅 南        ,蒲黄榆三里,4000,https://bj.lianjia.com/zufang/BJ2346325094328180736.html,lj,116.422657,39.876215
亚运村 整租·大屯里小区 1室1厅 南        ,大屯里小区,5500,https://bj.lianjia.com/zufang/BJ2346433209585377280.html,lj,116.42186399999999,40.014225
酒仙桥 整租·酒仙桥一街坊 2室1厅 南/北        ,酒仙桥一街坊,5500,https://bj.lianjia.com/zufang/BJ2321801377459732480.html,lj,116.500095,39.971343
北七家 整租·蓬莱公寓东区 1室1厅 南/北        ,蓬莱公寓东区,2600,https://bj.lianjia.com/zufang/BJ2308024484625924096.html,lj,120.78658100000001,37.817296999999996
顺义城 整租·供电局家属楼 2室1厅 南/北        ,供电局家属楼,2500,https://bj.lianjia.com/zufang/BJ2339142994550603776.html,lj,116.651684,40.141272
紫竹桥 整租·北京市人民检察院宿舍 1室0厅 北        ,北京市人民检察院宿舍,2600,https://bj.lianjia.com/zufang/BJ2336711928807686144.html,lj,116.322705,39.944865
八角 整租·八角路小区 1室1厅 南        ,八角路小区,2600,https://bj.lianjia.com/zufang/BJ2339173504596836352.html,lj,116.204256,39.918638
宋家庄 整租·3G木兰 1室0厅 西        ,3G木兰,3600,https://bj.lianjia.com/zufang/BJ2350719586007261184.html,lj,116.440873,39.853654999999996
知春路 整租·蓟门北里 2室1厅 南/北        ,蓟门北里,6000,https://bj.lianjia.com/zufang/BJ2323703596530532352.html,lj,116.357051,39.978744
垡头 整租·垡头西里 1室1厅 南        ,垡头西里,3900,https://bj.lianjia.com/zufang/BJ2327992391111819264.html,lj,116.51854499999999,39.86960300000001
阜成门 整租·北露园 2室1厅 南/北        ,北露园,5500,https://bj.lianjia.com/zufang/BJ2350484466528419840.html,lj,116.34787299999999,39.931849
牛街 整租·平原里小区 2室1厅 南/北        ,平原里小区,5000,https://bj.lianjia.com/zufang/BJ2324360425124134912.html,lj,116.379172,39.886221
马连洼 整租·天秀花园澄秀园 1室1厅 北        ,天秀花园澄秀园,4800,https://bj.lianjia.com/zufang/BJ2344663935783018496.html,lj,116.278924,40.033111
马连道 整租·马连道中里 1室1厅 南        ,马连道中里,5100,https://bj.lianjia.com/zufang/BJ2346335246565785600.html,lj,116.33833100000001,39.892742
天通苑 整租·天通苑北三区 2室1厅 南/北        ,天通苑北三区,4000,https://bj.lianjia.com/zufang/BJ2340329940513464320.html,lj,116.440126,40.082964000000004
黄村北 整租·金惠园三里南区 1室1厅 南/北        ,金惠园三里南区,2800,https://bj.lianjia.com/zufang/BJ2343933869373259776.html,lj,116.333471,39.777104
鲁谷 整租·永乐东区 2室1厅 西        ,永乐东区,4000,https://bj.lianjia.com/zufang/BJ2304212122051289088.html,lj,116.23924299999999,39.906244
西三旗 整租·建材城西二里 2室1厅 南/北        ,建材城西二里,4800,https://bj.lianjia.com/zufang/BJ2346875807919505408.html,lj,116.361231,40.069435999999996
大望路 整租·后现代城A区 1室0厅 北        ,后现代城A区,5800,https://bj.lianjia.com/zufang/BJ2350569064197529600.html,lj,116.49411699999999,39.905751
良乡 整租·伟业嘉园西里 2室1厅 北        ,伟业嘉园西里,2500,https://bj.lianjia.com/zufang/BJ2349708876368322560.html,lj,116.165985,39.739183000000004
苏州桥 整租·小南庄社区 1室0厅 南        ,小南庄社区,3300,https://bj.lianjia.com/zufang/BJ2348396853172903936.html,lj,116.31258000000001,39.970057000000004
马家堡 整租·富卓苑 1室0厅 西        ,富卓苑,3900,https://bj.lianjia.com/zufang/BJ2337431507980779520.html,lj,116.381703,39.843816
常营 整租·苹果派 1室1厅 北        ,苹果派,4800,https://bj.lianjia.com/zufang/BJ2329605321351233536.html,lj,116.584769,39.935584999999996
北大地 整租·正阳大街 2室1厅 南        ,正阳大街,3500,https://bj.lianjia.com/zufang/BJ2299314958329970688.html,lj,116.288937,39.852831
南口 整租·南厂住宅西区 2室1厅 南/北        ,南厂住宅西区,1800,https://bj.lianjia.com/zufang/BJ2247043209010085888.html,lj,116.130524,40.250207
万达 整租·帅府园 2室1厅 南/北        ,帅府园,3500,https://bj.lianjia.com/zufang/BJ2329482104787697664.html,lj,116.65306100000001,39.909034999999996
果园 整租·苏荷时代 1室1厅 南        ,苏荷时代,3600,https://bj.lianjia.com/zufang/BJ2341035867872690176.html,lj,116.651468,39.897807
紫竹桥 整租·北京市人民检察院宿舍 1室0厅 北        ,北京市人民检察院宿舍,2600,https://bj.lianjia.com/zufang/BJ2336711928807686144.html,lj,116.322705,39.944865
南口 整租·南厂住宅西区 2室1厅 南/北        ,南厂住宅西区,1800,https://bj.lianjia.com/zufang/BJ2247043209010085888.html,lj,116.130524,40.250207
石佛营 整租·八里庄北里小区 2室1厅 南/北        ,八里庄北里小区,6000,https://bj.lianjia.com/zufang/BJ2340588279088824320.html,lj,116.50684199999999,39.931622999999995
定福庄 整租·三间房西里 1室1厅 南/北        ,三间房西里,3500,https://bj.lianjia.com/zufang/BJ2314383731726753792.html,lj,116.575239,39.923318
公主坟 整租·普惠南里 1室1厅 南        ,普惠南里,5000,https://bj.lianjia.com/zufang/BJ2330280188849963008.html,lj,116.313868,39.918033
上地 整租·当代城市家园 1室0厅 南        ,当代城市家园,4500,https://bj.lianjia.com/zufang/BJ2323961628191621120.html,lj,116.325364,40.049345
常营 整租·苹果派 1室1厅 北        ,苹果派,4800,https://bj.lianjia.com/zufang/BJ2329605321351233536.html,lj,116.584769,39.935584999999996
万达 整租·如意园 1室1厅 南/北        ,如意园,3500,https://bj.lianjia.com/zufang/BJ2316730974387576832.html,lj,116.67373300000001,39.91715900000001
望京 整租·花家地小区 1室1厅 南        ,花家地小区,5000,https://bj.lianjia.com/zufang/BJ2339709589580693504.html,lj,116.47697,39.990713
顺义城 整租·幸福东区 1室1厅 南/北        ,幸福东区,2800,https://bj.lianjia.com/zufang/BJ2232334602889076736.html,lj,116.66478500000001,40.14118300000001
团结湖 整租·团结湖北二条 1室1厅 南        ,团结湖北二条,5700,https://bj.lianjia.com/zufang/BJ2323873494842220544.html,lj,116.471216,39.938533
刘家窑 整租·石榴园北里小区 1室1厅 东        ,石榴园北里小区,4500,https://bj.lianjia.com/zufang/BJ2349777166180286464.html,lj,116.424357,39.854091
丰台其它 整租·永兴里 2室1厅 南/北        ,永兴里,2200,https://bj.lianjia.com/zufang/BJ2207729485602619392.html,lj,116.209027,39.839754
杨庄 整租·古城地铁车辆段 2室1厅 南        ,古城地铁车辆段,4200,https://bj.lianjia.com/zufang/BJ2337647484035137536.html,lj,116.200608,39.925072
玉泉路 整租·铁建大院 3室1厅 北        ,铁建大院,2300,https://bj.lianjia.com/zufang/BJ2349759497742336000.html,lj,116.26570900000002,39.91176
百子湾 整租·沿海赛洛城五期 1室1厅 东/西        ,沿海赛洛城五期,6300,https://bj.lianjia.com/zufang/BJ2296817624983805952.html,lj,116.513548,39.906028000000006
首都机场 整租·南平里 1室1厅 南        ,南平里,2500,https://bj.lianjia.com/zufang/BJ2318621952002236416.html,lj,116.603274,40.049671000000004
定福庄 整租·定福庄北里2号院 1室1厅 南        ,定福庄北里2号院,3700,https://bj.lianjia.com/zufang/BJ2345364563287359488.html,lj,116.564802,39.924634999999995
门头沟其它 整租·惠通新苑 2室1厅 南        ,惠通新苑,2200,https://bj.lianjia.com/zufang/BJ2278739606834774016.html,lj,116.11185800000001,40.012586
红庙 整租·红庙北里 2室1厅 南/北        ,红庙北里,4500,https://bj.lianjia.com/zufang/BJ2319547358313971712.html,lj,116.48644499999999,39.924889
马家堡 整租·角门13号院 1室1厅 东        ,角门13号院,3000,https://bj.lianjia.com/zufang/BJ2336838277635506176.html,lj,116.38176499999999,39.848014
八角 整租·八角路小区 2室0厅 南/北        ,八角路小区,3400,https://bj.lianjia.com/zufang/BJ2351215554612183040.html,lj,116.204256,39.918638
八角 整租·八角路小区 2室0厅 南/北        ,八角路小区,2700,https://bj.lianjia.com/zufang/BJ2306523901150642176.html,lj,116.204256,39.918638
朝阳公园 整租·南十里居 1室1厅 南        ,南十里居,4500,https://bj.lianjia.com/zufang/BJ2349855681060020224.html,lj,116.503599,39.962847
三元桥 整租·曙光里 1室1厅 南        ,曙光里,4700,https://bj.lianjia.com/zufang/BJ2335952894320181248.html,lj,116.45855300000001,39.971497
甜水园 整租·六里屯北里 1室1厅 南        ,六里屯北里,5600,https://bj.lianjia.com/zufang/BJ2338334576042590208.html,lj,116.48098200000001,39.93714
北关 整租·劳动局家属院 1室1厅 南        ,劳动局家属院,2900,https://bj.lianjia.com/zufang/BJ2340363313206001664.html,lj,116.66093799999999,39.926120000000004
旧宫 整租·云龙家园 1室1厅 南/北        ,云龙家园,2800,https://bj.lianjia.com/zufang/BJ2254178302577352704.html,lj,116.441126,39.813621999999995
大兴其它 整租·新凤小区 2室1厅 南/北        ,新凤小区,2700,https://bj.lianjia.com/zufang/BJ2325904751751077888.html,lj,116.39811399999999,39.725765
北七家 整租·温泉花园B区 2室1厅 南/北        ,温泉花园B区,3000,https://bj.lianjia.com/zufang/BJ2352038443359944704.html,lj,116.422952,40.134155
玉泉路 整租·复兴路46号院 3室1厅 南/西        ,复兴路46号院,2500,https://bj.lianjia.com/zufang/BJ2340574967005192192.html,lj,116.25990800000001,39.91226500000001
马连道 整租·马连道中里 1室1厅 南        ,马连道中里,5100,https://bj.lianjia.com/zufang/BJ2346335246565785600.html,lj,116.33833100000001,39.892742
马连洼 整租·天秀花园澄秀园 1室1厅 北        ,天秀花园澄秀园,4800,https://bj.lianjia.com/zufang/BJ2344663935783018496.html,lj,116.278924,40.033111
蒲黄榆 整租·蒲黄榆三里 1室1厅 南        ,蒲黄榆三里,4000,https://bj.lianjia.com/zufang/BJ2346325094328180736.html,lj,116.422657,39.876215
丰台其它 整租·领秀翡翠墅 5室2厅 南/北        ,领秀翡翠墅,3000,https://bj.lianjia.com/zufang/BJ2262117539121471488.html,lj,116.170207,39.80709
和平里 整租·砖角楼南里 1室1厅 北        ,砖角楼南里,3800,https://bj.lianjia.com/zufang/BJ2268631107736182784.html,lj,116.43765900000001,39.959391
酒仙桥 整租·电子城小区 2室1厅 西北        ,电子城小区,6000,https://bj.lianjia.com/zufang/BJ2299317224110309376.html,lj,116.509425,39.971244
酒仙桥 整租·酒仙桥四街坊 2室1厅 西        ,酒仙桥四街坊,4200,https://bj.lianjia.com/zufang/BJ2349050756750901248.html,lj,116.50470800000001,39.968594
果园 整租·葛布店南里 2室1厅 南/北        ,葛布店南里,3300,https://bj.lianjia.com/zufang/BJ2331687183226257408.html,lj,116.66821399999999,39.897192
东关 整租·清秀园北区 1室0厅 北        ,清秀园北区,2600,https://bj.lianjia.com/zufang/BJ2346146562570461184.html,lj,116.250845,40.223833
长阳 整租·碧桂园小区C区 1室1厅 南        ,碧桂园小区C区,2600,https://bj.lianjia.com/zufang/BJ2312964673282523136.html,lj,116.176674,39.768833
定福庄 整租·定福家园2号院 2室1厅 西北        ,定福家园2号院,5500,https://bj.lianjia.com/zufang/BJ2334088643440295936.html,lj,116.575179,39.929004
广安门 整租·远见名苑 1室1厅 西        ,远见名苑,4800,https://bj.lianjia.com/zufang/BJ2345409373217488896.html,lj,116.34498500000001,39.891739
亚运村 整租·大屯里小区 1室1厅 南        ,大屯里小区,5500,https://bj.lianjia.com/zufang/BJ2346433209585377280.html,lj,116.42186399999999,40.014225
酒仙桥 整租·酒仙桥一街坊 2室1厅 南/北        ,酒仙桥一街坊,5500,https://bj.lianjia.com/zufang/BJ2321801377459732480.html,lj,116.500095,39.971343
顺义城 整租·供电局家属楼 2室1厅 南/北        ,供电局家属楼,2500,https://bj.lianjia.com/zufang/BJ2339142994550603776.html,lj,116.651684,40.141272
团结湖 整租·团结湖北二条 1室1厅 南        ,团结湖北二条,5700,https://bj.lianjia.com/zufang/BJ2323873494842220544.html,lj,116.471216,39.938533
朝阳公园 整租·南十里居 1室1厅 南        ,南十里居,4500,https://bj.lianjia.com/zufang/BJ2349855681060020224.html,lj,116.503599,39.962847
八角 整租·八角路小区 2室0厅 南/北        ,八角路小区,3400,https://bj.lianjia.com/zufang/BJ2351215554612183040.html,lj,116.204256,39.918638
首都机场 整租·南平里 1室1厅 南        ,南平里,2500,https://bj.lianjia.com/zufang/BJ2318621952002236416.html,lj,116.603274,40.049671000000004
百子湾 整租·沿海赛洛城五期 1室1厅 东/西        ,沿海赛洛城五期,6300,https://bj.lianjia.com/zufang/BJ2296817624983805952.html,lj,116.513548,39.906028000000006
定福庄 整租·定福庄北里2号院 1室1厅 南        ,定福庄北里2号院,3700,https://bj.lianjia.com/zufang/BJ2345364563287359488.html,lj,116.564802,39.924634999999995
天宫院南 整租·御园D区 1室1厅 南        ,御园D区,2200,https://bj.lianjia.com/zufang/BJ2346865548593471488.html,lj,116.32941399999999,39.633523
三元桥 整租·曙光里 1室1厅 南        ,曙光里,4700,https://bj.lianjia.com/zufang/BJ2335952894320181248.html,lj,116.45855300000001,39.971497
马连道 整租·红莲中里 2室1厅 东南        ,红莲中里,5100,https://bj.lianjia.com/zufang/BJ2322481519262187520.html,lj,116.34106799999999,39.888946999999995
杨庄 整租·古城地铁车辆段 2室1厅 南        ,古城地铁车辆段,4200,https://bj.lianjia.com/zufang/BJ2337647484035137536.html,lj,116.200608,39.925072
后沙峪 整租·蓝星花园 1室0厅 西        ,蓝星花园,3000,https://bj.lianjia.com/zufang/BJ2335267296517832704.html,lj,116.560414,40.094924
阜成门 整租·百万庄丑区 2室1厅 西/北        ,百万庄丑区,6000,https://bj.lianjia.com/zufang/BJ2339133133649625088.html,lj,116.342887,39.936453
德胜门 整租·德胜里一区 2室1厅 东        ,德胜里一区,4200,https://bj.lianjia.com/zufang/BJ2317824897004609536.html,lj,116.38360700000001,39.96294
岳各庄 整租·珠江峰景 2室1厅 西南        ,珠江峰景,4000,https://bj.lianjia.com/zufang/BJ2309245181037658112.html,lj,116.272651,39.885308
鲁谷 整租·鲁谷74号院 1室0厅 南/北        ,鲁谷74号院,2200,https://bj.lianjia.com/zufang/BJ2333789586578751488.html,lj,116.250476,39.909046999999994
鼓楼大街 整租·永安里小区 2室1厅 南/北        ,永安里小区,2500,https://bj.lianjia.com/zufang/BJ2244924219802517504.html,lj,116.238932,40.217119
西关环岛 整租·蓝郡国际花园 1室0厅 西        ,蓝郡国际花园,2300,https://bj.lianjia.com/zufang/BJ2342545250746646528.html,lj,116.23211,40.224257
马连道 整租·红莲中里 2室1厅 东南        ,红莲中里,5100,https://bj.lianjia.com/zufang/BJ2322481519262187520.html,lj,116.34106799999999,39.888946999999995
三元桥 整租·曙光里 1室1厅 南        ,曙光里,4700,https://bj.lianjia.com/zufang/BJ2335952894320181248.html,lj,116.45855300000001,39.971497
亚运村 整租·安慧北里逸园 1室1厅 东/西        ,安慧北里逸园,5000,https://bj.lianjia.com/zufang/BJ2334550845725097984.html,lj,116.42036999999999,40.006598
朝阳门外 整租·三丰里小区 2室1厅 南/北        ,三丰里小区,6000,https://bj.lianjia.com/zufang/BJ2321643490477342720.html,lj,116.445167,39.925243
后沙峪 整租·蓝星花园 1室0厅 西        ,蓝星花园,3000,https://bj.lianjia.com/zufang/BJ2335267296517832704.html,lj,116.560414,40.094924
望京 整租·点击未来 1室0厅 西南        ,点击未来,5600,https://bj.lianjia.com/zufang/BJ2346340880958357504.html,lj,116.479974,39.99339000000001
刘家窑 整租·石榴园北里小区 2室1厅 南/北        ,石榴园北里小区,4200,https://bj.lianjia.com/zufang/BJ2349966278959579136.html,lj,116.424357,39.854091
通州其它 整租·华馨园 1室1厅 东        ,华馨园,3000,https://bj.lianjia.com/zufang/BJ2328320864136724480.html,lj,116.59081200000001,39.809834
红庙 整租·呼家楼新街大院 2室1厅 南/北        ,呼家楼新街大院,5500,https://bj.lianjia.com/zufang/BJ2346160410501054464.html,lj,116.47511000000002,39.921296999999996
定福庄 整租·福怡苑 1室1厅 西        ,福怡苑,4000,https://bj.lianjia.com/zufang/BJ2281087611307302912.html,lj,116.560771,39.925321000000004
东大桥 整租·东大桥东里 1室1厅 东        ,东大桥东里,4500,https://bj.lianjia.com/zufang/BJ2325326016492609536.html,lj,116.459626,39.926774
安宁庄 整租·安宁里南区 2室1厅 复式 南/北        ,安宁里南区,5000,https://bj.lianjia.com/zufang/BJ2351438485568618496.html,lj,116.33962,40.050683
大峪 整租·新桥路小区 2室1厅 南/北        ,新桥路小区,1800,https://bj.lianjia.com/zufang/BJ2327303309511368704.html,lj,116.109802,39.942984
角门 整租·角门东里 1室1厅 北        ,角门东里,4000,https://bj.lianjia.com/zufang/BJ2341872106184114176.html,lj,116.38848999999999,39.853628
天宫院 整租·明发雅苑 2室2厅 南        ,明发雅苑,3500,https://bj.lianjia.com/zufang/BJ2334064779855413248.html,lj,116.33313600000001,39.692186
大兴其它 整租·金色漫香郡北区 1室1厅 南        ,金色漫香郡北区,2300,https://bj.lianjia.com/zufang/BJ2309383240269971456.html,lj,116.406722,39.72146
红庙 整租·慈云寺 1室0厅 南        ,慈云寺,3700,https://bj.lianjia.com/zufang/BJ2345378814676713472.html,lj,116.49767299999999,39.921245
中关村 整租·科育小区 1室1厅 南        ,科育小区,4300,https://bj.lianjia.com/zufang/BJ2347069089652424704.html,lj,116.32824099999999,39.987714000000004
良乡 整租·伟业嘉园西里 1室0厅 北        ,伟业嘉园西里,1000,https://bj.lianjia.com/zufang/BJ2345374044578660352.html,lj,116.165985,39.739183000000004
宋家庄 整租·宋庄路 2室1厅 东/西        ,宋庄路,4600,https://bj.lianjia.com/zufang/BJ2345379119954665472.html,lj,116.434661,39.838628
石门营 整租·紫金新园三区 1室1厅 南        ,紫金新园三区,2500,https://bj.lianjia.com/zufang/BJ2340537460230201344.html,lj,116.12106999999999,39.89271
顺义城 整租·石园东区 2室1厅 南/北        ,石园东区,2800,https://bj.lianjia.com/zufang/BJ2351416072592703488.html,lj,116.673546,40.116508
良乡 整租·伟业嘉园西里 1室0厅 南        ,伟业嘉园西里,1000,https://bj.lianjia.com/zufang/BJ2264193120545538048.html,lj,116.165985,39.739183000000004
北工大 整租·松榆东里 1室1厅 南        ,松榆东里,4500,https://bj.lianjia.com/zufang/BJ2351399599136047104.html,lj,116.48144599999999,39.878969
新街口 整租·五月华庭 1室1厅 东        ,五月华庭,6000,https://bj.lianjia.com/zufang/BJ2351898883371835392.html,lj,116.375031,39.958162
果园 整租·新华联家园北区 1室0厅 北        ,新华联家园北区,3500,https://bj.lianjia.com/zufang/BJ2338419455383838720.html,lj,116.647352,39.901401
天宫院南 整租·众美MIMO公馆 1房间 北        ,众美MIMO公馆,1900,https://bj.lianjia.com/zufang/BJ2300016448057384960.html,lj,116.32931299999998,39.636587
新街口 整租·五月华庭 1室1厅 东        ,五月华庭,6000,https://bj.lianjia.com/zufang/BJ2351898883371835392.html,lj,116.375031,39.958162
常营 整租·柏林爱乐二期 2室1厅 西        ,柏林爱乐二期,6300,https://bj.lianjia.com/zufang/BJ2349061675094908928.html,lj,116.59579699999999,39.92845300000001
通州北苑 整租·铁路宿舍 2室1厅 南        ,铁路宿舍,3600,https://bj.lianjia.com/zufang/BJ2306962626808119296.html,lj,116.632052,39.911671999999996
西关环岛 整租·郝庄家园西区 2室1厅 南/北        ,郝庄家园西区,2800,https://bj.lianjia.com/zufang/BJ2341113337330810880.html,lj,116.21578000000001,40.221314
豆各庄 整租·恒大领寓 1室0厅 东        ,恒大领寓,4700,https://bj.lianjia.com/zufang/BJ2352008563213746176.html,lj,116.55765900000002,39.86078
果园 整租·果园233号院 1室1厅 南/北        ,果园233号院,3600,https://bj.lianjia.com/zufang/BJ2351173494366011392.html,lj,116.65649499999999,39.90276400000001
回龙观 整租·龙华园 1室1厅 南/北        ,龙华园,4000,https://bj.lianjia.com/zufang/BJ2349011976929419264.html,lj,116.33315900000001,40.081725
梨园 整租·当代名筑 1室0厅 西        ,当代名筑,3600,https://bj.lianjia.com/zufang/BJ2341948405733408768.html,lj,116.671705,39.895722
定福庄 整租·定福庄西街 2室1厅 南/北        ,定福庄西街,5000,https://bj.lianjia.com/zufang/BJ2328909577032310784.html,lj,116.55741599999999,39.917546
紫竹桥 整租·三虎桥 2室1厅 南/北        ,三虎桥,5500,https://bj.lianjia.com/zufang/BJ2338869775398617088.html,lj,116.32479199999999,39.944804
万达 整租·皓月苑 1室1厅 南        ,皓月苑,2700,https://bj.lianjia.com/zufang/BJ2349852604370534400.html,lj,116.675591,39.903766999999995
果园 整租·新华联家园北区 1室0厅 北        ,新华联家园北区,3500,https://bj.lianjia.com/zufang/BJ2338419455383838720.html,lj,116.647352,39.901401
小西天 整租·志强园 2室1厅 南/北        ,志强园,5500,https://bj.lianjia.com/zufang/BJ2338299440147996672.html,lj,116.370066,39.958872
果园 整租·葛布店南里 3室1厅 东/南/北        ,葛布店南里,2800,https://bj.lianjia.com/zufang/BJ2333263076134502400.html,lj,116.66821399999999,39.897192
苹果园 整租·西井小区三区 2室1厅 南/北        ,西井小区三区,4300,https://bj.lianjia.com/zufang/BJ2341936461244538880.html,lj,116.20581100000001,39.938865
卢沟桥 整租·新月家园 2室1厅 南/北        ,新月家园,4500,https://bj.lianjia.com/zufang/BJ2345544468796538880.html,lj,116.24075900000001,39.851634999999995
科技园区 整租·天龙华鹤 2室1厅 东南        ,天龙华鹤,4600,https://bj.lianjia.com/zufang/BJ2339004250455556096.html,lj,116.298736,39.839057000000004
昌平其它 整租·金科帕提欧 1室1厅 南        ,金科帕提欧,2200,https://bj.lianjia.com/zufang/BJ2333195698113626112.html,lj,116.401953,40.18904000000001
石佛营 整租·炫特嘉园一期 1室0厅 南        ,炫特嘉园一期,5200,https://bj.lianjia.com/zufang/BJ2325165998157864960.html,lj,116.51318799999999,39.934977
常营 整租·柏林爱乐一期 2室1厅 西        ,柏林爱乐一期,6300,https://bj.lianjia.com/zufang/BJ2323734208465608704.html,lj,116.59238899999998,39.92557100000001
新宫 整租·诚苑南里 1室1厅 南/西        ,诚苑南里,3600,https://bj.lianjia.com/zufang/BJ2325229192520155136.html,lj,116.379535,39.809422999999995
牛街 整租·平原里小区 1室1厅 南/北        ,平原里小区,4500,https://bj.lianjia.com/zufang/BJ2345385491538649088.html,lj,116.379172,39.886221
紫竹桥 整租·紫竹院南路20号院 2室1厅 南/北        ,紫竹院南路20号院,4500,https://bj.lianjia.com/zufang/BJ2305081118187331584.html,lj,116.327519,39.942285999999996
常营 整租·金隅丽景园 1室1厅 东        ,金隅丽景园,4500,https://bj.lianjia.com/zufang/BJ2341852188768206848.html,lj,116.618724,39.931886999999996
北工大 整租·平乐园小区 1室1厅 南/北        ,平乐园小区,4800,https://bj.lianjia.com/zufang/BJ2326787863859445760.html,lj,116.488017,39.888247
十里河 整租·吕营嘉园A区 3室1厅 南/北        ,吕营嘉园A区,5500,https://bj.lianjia.com/zufang/BJ2337367064102313984.html,lj,116.47534399999999,39.85221
科技园区 整租·宝隆温泉公寓 2室1厅 北        ,宝隆温泉公寓,4300,https://bj.lianjia.com/zufang/BJ2297868398698708992.html,lj,116.300758,39.838276
公主坟 整租·万寿路小区 1室1厅 南        ,万寿路小区,4900,https://bj.lianjia.com/zufang/BJ2314516886207078400.html,lj,116.30261899999999,39.917488
北苑 整租·华贸城 1室0厅 西        ,华贸城,4600,https://bj.lianjia.com/zufang/BJ2340563900552192000.html,lj,116.43733999999999,40.053813
东坝 整租·单店西村 2室1厅 南/北        ,单店西村,4800,https://bj.lianjia.com/zufang/BJ2339194975079628800.html,lj,116.54203799999999,39.966858
门头沟其它 整租·惠泽家园 2室1厅 南/北        ,惠泽家园,2400,https://bj.lianjia.com/zufang/BJ2251982277762621440.html,lj,116.071679,39.938769
武夷花园 整租·西上园老三区 1室1厅 南        ,西上园老三区,3000,https://bj.lianjia.com/zufang/BJ2347110635659337728.html,lj,116.683806,39.908735
顺义城 整租·滨河小区 2室1厅 南/北        ,滨河小区,2600,https://bj.lianjia.com/zufang/BJ2262861578662068224.html,lj,116.68953,40.123855999999996
甜水园 整租·甜水园东里 2室1厅 东/西        ,甜水园东里,6200,https://bj.lianjia.com/zufang/BJ2325355730468872192.html,lj,116.489346,39.931691
十八里店 整租·鸿博家园一区 2室1厅 南/北        ,鸿博家园一区,4500,https://bj.lianjia.com/zufang/BJ2340298886985285632.html,lj,116.482076,39.836114
颐和园 整租·骚子营 2室1厅 南/北        ,骚子营,5800,https://bj.lianjia.com/zufang/BJ2336286560263348224.html,lj,116.290151,40.013621
新宫 整租·南庭新苑南区 1室1厅 东        ,南庭新苑南区,4100,https://bj.lianjia.com/zufang/BJ2341002086419791872.html,lj,116.3755,39.80896
红庙 整租·延静里中街 2室1厅 南/北        ,延静里中街,6300,https://bj.lianjia.com/zufang/BJ2335949781693898752.html,lj,116.491225,39.922569
方庄 整租·gogo新世代 1室1厅 南        ,gogo新世代,4600,https://bj.lianjia.com/zufang/BJ2335256446792368128.html,lj,116.42898100000001,39.873267
石景山其它 整租·西山峻景 2室1厅 南/北        ,西山峻景,3500,https://bj.lianjia.com/zufang/BJ2314406909023109120.html,lj,116.130395,39.967636
果园 整租·雅丽世居 1室1厅 北        ,雅丽世居,3500,https://bj.lianjia.com/zufang/BJ2336753314408177664.html,lj,116.650696,39.902592
通州北苑 整租·长城国际 1室0厅 东        ,长城国际,3600,https://bj.lianjia.com/zufang/BJ2336733557650890752.html,lj,116.63929399999999,39.900732
清河 整租·毛纺厂南小区 1室1厅 南        ,毛纺厂南小区,4300,https://bj.lianjia.com/zufang/BJ2342446293835579392.html,lj,116.344718,40.03575
东坝 整租·康静里 2室1厅 南/北        ,康静里,4300,https://bj.lianjia.com/zufang/BJ2299316855623655424.html,lj,116.53915400000001,39.967772
临河里 整租·迎喜家园 2室1厅 南/北        ,迎喜家园,3000,https://bj.lianjia.com/zufang/BJ2335294273551081472.html,lj,116.693924,39.880282
石佛营 整租·炫特嘉园一期 1室1厅 南        ,炫特嘉园一期,6000,https://bj.lianjia.com/zufang/BJ2324652211092856832.html,lj,116.51318799999999,39.934977
常营 整租·富力阳光美园 2室1厅 西        ,富力阳光美园,5500,https://bj.lianjia.com/zufang/BJ2348276273543127040.html,lj,116.61305700000001,39.933898
沙河 整租·北街家园五区 1房间 东        ,北街家园五区,1100,https://bj.lianjia.com/zufang/BJ2351209802266312704.html,lj,116.275283,40.172763
定慧寺 整租·八里庄北里 2室1厅 南/北        ,八里庄北里,6000,https://bj.lianjia.com/zufang/BJ2328901222607888384.html,lj,116.29813,39.935532
马坡 整租·马坡花园一区 2室1厅 南/北        ,马坡花园一区,2600,https://bj.lianjia.com/zufang/BJ2340482616626511872.html,lj,116.66146200000001,40.180465999999996
田村 整租·田村路19号院 2室1厅 南/北        ,田村路19号院,5000,https://bj.lianjia.com/zufang/BJ2209412885317697536.html,lj,116.401009,39.904125
广安门 整租·荣丰2008 1室0厅 南        ,荣丰2008,3600,https://bj.lianjia.com/zufang/BJ2346381442503671808.html,lj,116.343326,39.90028
望京 整租·花家地小区 1室1厅 西北        ,花家地小区,6200,https://bj.lianjia.com/zufang/BJ2341059954628370432.html,lj,116.47697,39.990713
亚运村小营 整租·安慧东里 1室1厅 南/北        ,安慧东里,4800,https://bj.lianjia.com/zufang/BJ2330160453835571200.html,lj,116.429014,39.99649
沙河 整租·北街家园八区 1室0厅 东        ,北街家园八区,2300,https://bj.lianjia.com/zufang/BJ2342628433072226304.html,lj,116.266093,40.171229
百子湾 整租·北京建筑木材总厂宿舍 1室1厅 南        ,北京建筑木材总厂宿舍,3900,https://bj.lianjia.com/zufang/BJ2333927282911223808.html,lj,116.51261699999999,39.907307
官园 整租·小后仓 1室1厅 南/北        ,小后仓,5000,https://bj.lianjia.com/zufang/BJ2334604060520890368.html,lj,116.368311,39.94365
潞苑 整租·四海公寓 3室1厅 南/北        ,四海公寓,3100,https://bj.lianjia.com/zufang/BJ2335419710554259456.html,lj,116.703248,39.956671
良乡 整租·西潞昊宏家园 2室1厅 东/西        ,西潞昊宏家园,2600,https://bj.lianjia.com/zufang/BJ2275157411801612288.html,lj,116.143442,39.734445
西红门 整租·金荣园 2室1厅 南        ,金荣园,3000,https://bj.lianjia.com/zufang/BJ2350702538476486656.html,lj,116.385672,39.773109999999996
万达 整租·东营前街 2室1厅 南/北        ,东营前街,3300,https://bj.lianjia.com/zufang/BJ2351896425148710912.html,lj,116.67686599999999,39.905571
朝阳门外 整租·芳草地西街 2室1厅 东/西        ,芳草地西街,6200,https://bj.lianjia.com/zufang/BJ2332373335767793664.html,lj,116.452727,39.928843
望京 整租·点击未来 1室0厅 东南        ,点击未来,5300,https://bj.lianjia.com/zufang/BJ2349034548089585664.html,lj,116.479974,39.99339000000001
沙河 整租·民园小区 2室1厅 南/北        ,民园小区,3500,https://bj.lianjia.com/zufang/BJ2346285394939101184.html,lj,116.278977,40.145644
海淀北部新区 整租·老年医院家属楼 2室1厅 南/北        ,老年医院家属楼,3500,https://bj.lianjia.com/zufang/BJ2334042445924810752.html,lj,116.16665,40.056416
梨园 整租·11站 1室0厅 北        ,11站,3500,https://bj.lianjia.com/zufang/BJ2350750867327819776.html,lj,116.676649,39.88681500000001
健翔桥 整租·华严北里9号院 1室1厅 南/北        ,华严北里9号院,5200,https://bj.lianjia.com/zufang/BJ2332378066103574528.html,lj,116.389284,39.989459000000004
六里桥 整租·六里桥北里 1室1厅 西        ,六里桥北里,4500,https://bj.lianjia.com/zufang/BJ2345382399019589632.html,lj,116.30988300000001,39.89409000000001
百子湾 整租·沿海赛洛城二期 1室0厅 南        ,沿海赛洛城二期,6000,https://bj.lianjia.com/zufang/BJ2339669782741663744.html,lj,116.51233400000001,39.902245
广安门 整租·广安门外大街 1室1厅 南        ,广安门外大街,4500,https://bj.lianjia.com/zufang/BJ2347657452835061760.html,lj,116.347486,39.895632
北七家 整租·温泉花园B区 1室1厅 南/北        ,温泉花园B区,2700,https://bj.lianjia.com/zufang/BJ2328926032570359808.html,lj,116.422952,40.134155
科技园区 整租·高鑫家园 1室1厅 南        ,高鑫家园,3300,https://bj.lianjia.com/zufang/BJ2350630424859901952.html,lj,116.31416000000002,39.798727
北苑 整租·环科院 2室1厅 南/北        ,环科院,5200,https://bj.lianjia.com/zufang/BJ2314422003852902400.html,lj,116.355355,39.929972
五棵松 整租·金沟河3号院 1室1厅 南        ,金沟河3号院,4800,https://bj.lianjia.com/zufang/BJ2343259570237087744.html,lj,116.27656499999999,39.925356
定福庄 整租·三间房西里 1室1厅 南        ,三间房西里,3600,https://bj.lianjia.com/zufang/BJ2346154527604359168.html,lj,116.575239,39.923318
黄村火车站 整租·锦华园 2室1厅 南/北        ,锦华园,3400,https://bj.lianjia.com/zufang/BJ2307677011646087168.html,lj,116.334404,39.72154000000001
旧宫 整租·宇航小区 2室1厅 南        ,宇航小区,2700,https://bj.lianjia.com/zufang/BJ2320914066434441216.html,lj,116.409199,39.791803
天宁寺 整租·车站东街15号院 2室1厅 南        ,车站东街15号院,5900,https://bj.lianjia.com/zufang/BJ2335260118830563328.html,lj,116.351933,39.887523
马连道 整租·红莲南里 2室1厅 东        ,红莲南里,5200,https://bj.lianjia.com/zufang/BJ2323849661808918528.html,lj,116.342161,39.882948
和义 整租·和义东里三区 1室1厅 南/北        ,和义东里三区,3300,https://bj.lianjia.com/zufang/BJ2342095532471615488.html,lj,116.412834,39.8209
武夷花园 整租·农行家属院 2室1厅 南        ,农行家属院,3500,https://bj.lianjia.com/zufang/BJ2351399503556788224.html,lj,116.687725,39.909076
马坡 整租·马坡花园一区 1室1厅 南/北        ,马坡花园一区,2400,https://bj.lianjia.com/zufang/BJ2328111937700757504.html,lj,116.66146200000001,40.180465999999996
和义 整租·东高地 2室1厅 南        ,东高地,3500,https://bj.lianjia.com/zufang/BJ2335940899533488128.html,lj,116.41568600000001,39.811433
芍药居 整租·芍药居北里 2室1厅 南/北        ,芍药居北里,6200,https://bj.lianjia.com/zufang/BJ2335543241572614144.html,lj,116.442543,39.991949
马连道 整租·北欧印象 1室0厅 东        ,北欧印象,3800,https://bj.lianjia.com/zufang/BJ2265178121307701248.html,lj,116.335503,39.882591999999995
定福庄 整租·泰福苑D3区 1室1厅 南        ,泰福苑D3区,5000,https://bj.lianjia.com/zufang/BJ2347831714447106048.html,lj,116.580716,39.926541
常营 整租·北京新天地三期 2室1厅 南        ,北京新天地三期,5800,https://bj.lianjia.com/zufang/BJ2328088486894379008.html,lj,116.612844,39.919959999999996
紫竹桥 整租·财智公馆 1室1厅 东        ,财智公馆,5500,https://bj.lianjia.com/zufang/BJ2349779596477464576.html,lj,116.307845,39.948855
大峪 整租·峪园小区 2室1厅 南/北        ,峪园小区,2600,https://bj.lianjia.com/zufang/BJ2337392069544247296.html,lj,116.10795900000001,39.936508
古城 整租·古城路小区 1室1厅 南        ,古城路小区,3200,https://bj.lianjia.com/zufang/BJ2286190354183233536.html,lj,116.19649799999999,39.925476
东直门 整租·新源西里东街 2室1厅 南/北        ,新源西里东街,6000,https://bj.lianjia.com/zufang/BJ2332334746719764480.html,lj,116.45666000000001,39.95241400000001
宣武门 整租·铁树斜街 1室1厅 南/北        ,铁树斜街,4000,https://bj.lianjia.com/zufang/BJ2317331484425592832.html,lj,116.39690300000001,39.900271000000004
海淀北部新区 整租·北分厂 2室1厅 南/北        ,北分厂,4800,https://bj.lianjia.com/zufang/BJ2328752328624316416.html,lj,116.172095,40.073491
十里堡 整租·八里庄南里 2室1厅 南        ,八里庄南里,6200,https://bj.lianjia.com/zufang/BJ2327322126224195584.html,lj,116.50523000000001,39.927909
大兴其它 整租·格林云墅 4室2厅 南/北        ,格林云墅,3200,https://bj.lianjia.com/zufang/BJ2135444498372116480.html,lj,116.407671,39.714365
梨园 整租·梨园东里 1室1厅 南        ,梨园东里,3500,https://bj.lianjia.com/zufang/BJ2349126873813876736.html,lj,116.689451,39.890138
良乡 整租·伟业嘉园北里 2室1厅 西北        ,伟业嘉园北里,2000,https://bj.lianjia.com/zufang/BJ2346154616246779904.html,lj,116.165512,39.741347999999995
天宫院南 整租·隆盛园 2室2厅 南/北        ,隆盛园,2400,https://bj.lianjia.com/zufang/BJ2277508930722865152.html,lj,116.32811000000001,39.628175
酒仙桥 整租·高家园二区 1室1厅 南        ,高家园二区,5300,https://bj.lianjia.com/zufang/BJ2352034978730352640.html,lj,116.49208200000001,39.984092
小西天 整租·学院南路32号院 1室1厅 东        ,学院南路32号院,5700,https://bj.lianjia.com/zufang/BJ2352029523559849984.html,lj,116.364205,39.962106
良乡 整租·玉竹园 1室1厅 南/北        ,玉竹园,2500,https://bj.lianjia.com/zufang/BJ2349728734795268096.html,lj,116.16408100000001,39.731934
看丹桥 整租·新华街六里 2室1厅 南/北        ,新华街六里,4100,https://bj.lianjia.com/zufang/BJ2339902098076352512.html,lj,116.2955,39.848308
旧宫 整租·宇航小区 2室1厅 南/北        ,宇航小区,2600,https://bj.lianjia.com/zufang/BJ2341329550900215808.html,lj,116.409199,39.791803
四季青 整租·绿波漫板 1室0厅 北        ,绿波漫板,5300,https://bj.lianjia.com/zufang/BJ2338907775683264512.html,lj,116.299252,39.942314
马连道 整租·马连道北街 2室1厅 南        ,马连道北街,5000,https://bj.lianjia.com/zufang/BJ2277444960657874944.html,lj,116.336091,39.893775
甘露园 整租·甘露家园 1室1厅 南        ,甘露家园,4500,https://bj.lianjia.com/zufang/BJ2330178836723417088.html,lj,116.52113,39.923959
西三旗 整租·建材城西二里 1室1厅 东        ,建材城西二里,4200,https://bj.lianjia.com/zufang/BJ2339641532459515904.html,lj,116.361231,40.069435999999996
新宫 整租·南庭新苑北区 1室1厅 西        ,南庭新苑北区,4500,https://bj.lianjia.com/zufang/BJ2346952759380811776.html,lj,116.375403,39.813057
旧宫 整租·芳源里 1室1厅 南/北        ,芳源里,3300,https://bj.lianjia.com/zufang/BJ2336789861962350592.html,lj,116.42370600000001,39.790701
北七家 整租·北亚花园 2室1厅 南/北        ,北亚花园,3400,https://bj.lianjia.com/zufang/BJ2341073427437461504.html,lj,116.42773899999999,40.135785999999996
角门 整租·司达小区 2室0厅 南/北        ,司达小区,4600,https://bj.lianjia.com/zufang/BJ2310054482865823744.html,lj,116.386751,39.851089
上地 整租·上地东里 2室1厅 南/北        ,上地东里,5400,https://bj.lianjia.com/zufang/BJ2313691536501776384.html,lj,116.321109,40.038395
草桥 整租·草桥矿冶小区 1室1厅 南        ,草桥矿冶小区,4000,https://bj.lianjia.com/zufang/BJ2347125633861296128.html,lj,116.36148,39.8549
双桥 整租·双桥六号井 1室1厅 南/北        ,双桥六号井,4000,https://bj.lianjia.com/zufang/BJ2351200558632935424.html,lj,116.611153,39.896007
管庄 整租·华龙美树 1室0厅 北        ,华龙美树,4300,https://bj.lianjia.com/zufang/BJ2341073577946136576.html,lj,116.586327,39.918092
安宁庄 整租·安宁里 1室1厅 南/北        ,安宁里,4000,https://bj.lianjia.com/zufang/BJ2309873989440782336.html,lj,116.33717299999999,40.051868
厂洼 整租·厂洼小区 2室1厅 南/北        ,厂洼小区,6000,https://bj.lianjia.com/zufang/BJ2344004416258187264.html,lj,116.310727,39.964946999999995
顺义城 整租·石园北区 2室1厅 南/北        ,石园北区,2500,https://bj.lianjia.com/zufang/BJ2351413540901879808.html,lj,116.67084399999999,40.12035
东直门 整租·新源西里东街 1室1厅 南        ,新源西里东街,5500,https://bj.lianjia.com/zufang/BJ2312788888046796800.html,lj,116.45666000000001,39.95241400000001
长阳 整租·绿地新都会 1室1厅 南/北        ,绿地新都会,2500,https://bj.lianjia.com/zufang/BJ2340357882018799616.html,lj,116.167496,39.761987
苹果园 整租·苹果园小区二区 2室1厅 东南        ,苹果园小区二区,4200,https://bj.lianjia.com/zufang/BJ2231800534225133568.html,lj,116.19390700000001,39.936585
顺义城 整租·双兴南区 2室1厅 南/北        ,双兴南区,2900,https://bj.lianjia.com/zufang/BJ2321603495859322880.html,lj,116.66063899999999,40.145108
上地 整租·上地东里 1室1厅 南/北        ,上地东里,5300,https://bj.lianjia.com/zufang/BJ2315968736248733696.html,lj,116.321109,40.038395
八角 整租·八角南路 2室1厅 南        ,八角南路,3900,https://bj.lianjia.com/zufang/BJ2305112491119878144.html,lj,116.204959,39.91667
西直门 整租·明光村小区 1室1厅 南        ,明光村小区,5500,https://bj.lianjia.com/zufang/BJ2337665812237918208.html,lj,116.360234,39.961591
八角 整租·八角路小区 2室0厅 南        ,八角路小区,2500,https://bj.lianjia.com/zufang/BJ2338120088076959744.html,lj,116.204256,39.918638
角门 整租·角门甲4号院 2室1厅 南/北        ,角门甲4号院,4600,https://bj.lianjia.com/zufang/BJ2305585941890473984.html,lj,116.39608799999999,39.854615
大红门 整租·苗圃西里 2室1厅 东南        ,苗圃西里,4000,https://bj.lianjia.com/zufang/BJ2351323995313274880.html,lj,116.40671999999999,39.848799
青塔 整租·青塔秀园 2室1厅 南/北        ,青塔秀园,4100,https://bj.lianjia.com/zufang/BJ2338342018927042560.html,lj,116.2692,39.897318
西三旗 整租·育新花园 1室1厅 西南        ,育新花园,5300,https://bj.lianjia.com/zufang/BJ2326776726153609216.html,lj,116.351822,40.062749
新街口 整租·五月华庭 1室0厅 东        ,五月华庭,5600,https://bj.lianjia.com/zufang/BJ2344116704696598528.html,lj,116.375031,39.958162
清河 整租·毛纺厂南小区 2室1厅 南/北        ,毛纺厂南小区,5800,https://bj.lianjia.com/zufang/BJ2329743580157460480.html,lj,116.344718,40.03575
公主坟 整租·万寿路12号院 2室1厅 南/北        ,万寿路12号院,4800,https://bj.lianjia.com/zufang/BJ2298433891004334080.html,lj,116.30283200000001,39.916729
苹果园 整租·铸造村 2室1厅 南/北        ,铸造村,3500,https://bj.lianjia.com/zufang/BJ2314955417408774144.html,lj,116.16155400000001,39.930683
苹果园 整租·铸造村 2室1厅 南        ,铸造村,3500,https://bj.lianjia.com/zufang/BJ2331012037259296768.html,lj,116.16155400000001,39.930683
西二旗 整租·铭科苑 1室1厅 南/北        ,铭科苑,6000,https://bj.lianjia.com/zufang/BJ2336194789562916864.html,lj,116.32143300000001,40.057922999999995
北七家 整租·第二福利院家属楼 1室1厅 南        ,第二福利院家属楼,3000,https://bj.lianjia.com/zufang/BJ2343499867508449280.html,lj,116.42983100000001,40.149273
玉泉营 整租·万年花城新回迁 1室0厅 南        ,万年花城新回迁,4200,https://bj.lianjia.com/zufang/BJ2350766040415477760.html,lj,116.316475,39.849299
酒仙桥 整租·梵谷水郡 1室0厅 西南        ,梵谷水郡,5400,https://bj.lianjia.com/zufang/BJ2348514376480194560.html,lj,116.513348,39.966594
鼓楼大街 整租·北环里小区 1室1厅 西/北        ,北环里小区,2500,https://bj.lianjia.com/zufang/BJ2348986253305200640.html,lj,116.23466699999999,40.233238
和义 整租·和义东里五区 1室1厅 南        ,和义东里五区,3300,https://bj.lianjia.com/zufang/BJ2349992558606172160.html,lj,116.41086499999999,39.821032
甜水园 整租·道家园 1室1厅 西南        ,道家园,5300,https://bj.lianjia.com/zufang/BJ2321029351602667520.html,lj,116.49242,39.931677
大峪 整租·新桥路小区 2室1厅 南/北        ,新桥路小区,2300,https://bj.lianjia.com/zufang/BJ2331017673783656448.html,lj,116.109802,39.942984
知春路 整租·蓟门北里 1室1厅 南        ,蓟门北里,5500,https://bj.lianjia.com/zufang/BJ2351309352755011584.html,lj,116.357051,39.978744
高碑店 整租·南太平庄北巷 2室1厅 南        ,南太平庄北巷,5000,https://bj.lianjia.com/zufang/BJ2342686922642046976.html,lj,116.542359,39.925458
白石桥 整租·大慧寺21号院 1室1厅 南        ,大慧寺21号院,5900,https://bj.lianjia.com/zufang/BJ2319523684639326208.html,lj,116.339371,39.96167
看丹桥 整租·新华街一里 1室1厅 南        ,新华街一里,3800,https://bj.lianjia.com/zufang/BJ2349213895194836992.html,lj,116.300684,39.85156
双桥 整租·广播大院 1室0厅 北        ,广播大院,2900,https://bj.lianjia.com/zufang/BJ2322956858626940928.html,lj,116.583372,39.900682
十八里店 整租·三台山路3号院 2室1厅 南        ,三台山路3号院,4500,https://bj.lianjia.com/zufang/BJ2299305798758834176.html,lj,116.454509,39.834789
朝阳门外 整租·吉祥里 1室1厅 西        ,吉祥里,6100,https://bj.lianjia.com/zufang/BJ2299040923889713152.html,lj,116.448384,39.932258000000004
苹果园 整租·模式口西里 2室1厅 南/北        ,模式口西里,4200,https://bj.lianjia.com/zufang/BJ2349769837875560448.html,lj,116.15968799999999,39.939205
后沙峪 整租·蓝星花园 1室0厅 东        ,蓝星花园,3100,https://bj.lianjia.com/zufang/BJ2348449895524081664.html,lj,116.560414,40.094924
北七家 整租·名佳花园三区 1室1厅 南/北        ,名佳花园三区,3500,https://bj.lianjia.com/zufang/BJ2333054747202035712.html,lj,116.42501100000001,40.112455
菜户营 整租·考拉社区 1室0厅 西        ,考拉社区,4200,https://bj.lianjia.com/zufang/BJ2163163635348938752.html,lj,116.35311200000001,39.88238
鼓楼大街 整租·商业宿舍楼 2室1厅 南        ,商业宿舍楼,3000,https://bj.lianjia.com/zufang/BJ2163163483079196672.html,lj,116.238973,40.224635
六里桥 整租·金家村1号院 1室1厅 南        ,金家村1号院,4300,https://bj.lianjia.com/zufang/BJ2299299362180186112.html,lj,116.30024499999999,39.901807
和平里 整租·和平街十三区 1室1厅 南        ,和平街十三区,4800,https://bj.lianjia.com/zufang/BJ2338226919012564992.html,lj,116.43643,39.966871999999995
劲松 整租·广渠门外大街 1室1厅 南        ,广渠门外大街,5500,https://bj.lianjia.com/zufang/BJ2331027621271576576.html,lj,116.46370800000001,39.899262
劲松 整租·劲松八区 1室1厅 东        ,劲松八区,4600,https://bj.lianjia.com/zufang/BJ2331807639367065600.html,lj,116.455177,39.888788
甜水园 整租·道家园 1室1厅 南        ,道家园,5400,https://bj.lianjia.com/zufang/BJ2337514152513241088.html,lj,116.49242,39.931677
红庙 整租·红庙北里 2室1厅 南/北        ,红庙北里,6200,https://bj.lianjia.com/zufang/BJ2343275501504184320.html,lj,116.48644499999999,39.924889
大望路 整租·易构空间 1室0厅 东        ,易构空间,5400,https://bj.lianjia.com/zufang/BJ2330454073595404288.html,lj,116.488225,39.905605
临河里 整租·DBC加州小镇 1室0厅 南        ,DBC加州小镇,3200,https://bj.lianjia.com/zufang/BJ2341342133115420672.html,lj,116.689705,39.873473
石景山其它 整租·西山峻景 2室1厅 南/北        ,西山峻景,3300,https://bj.lianjia.com/zufang/BJ2349904250353483776.html,lj,116.130395,39.967636
顺义城 整租·裕龙三区 1室1厅 南/北        ,裕龙三区,2000,https://bj.lianjia.com/zufang/BJ2339793084021751808.html,lj,116.678577,40.130977
亦庄 整租·星岛嘉园 1室0厅 南        ,星岛嘉园,4200,https://bj.lianjia.com/zufang/BJ2261365244201287680.html,lj,116.485768,39.80526500000001
沙河 整租·北街家园六区 1室0厅 西        ,北街家园六区,2500,https://bj.lianjia.com/zufang/BJ2339089995182383104.html,lj,116.265505,40.165009999999995
东坝 整租·上东上层 1室1厅 西北        ,上东上层,5300,https://bj.lianjia.com/zufang/BJ2351943753096773632.html,lj,116.491575,39.976421
奥林匹克公园 整租·学士居 2室1厅 南/北        ,学士居,6300,https://bj.lianjia.com/zufang/BJ2324654482853462016.html,lj,116.37245300000001,40.016774
定福庄 整租·聚福苑 1室1厅 南        ,聚福苑,5000,https://bj.lianjia.com/zufang/BJ2346844161837645824.html,lj,116.562182,39.922691
西关环岛 整租·西关路 2室1厅 南/北        ,西关路,3500,https://bj.lianjia.com/zufang/BJ2273036152007573504.html,lj,116.23150700000001,40.229802
北大地 整租·北大地四里 2室1厅 西北        ,北大地四里,3700,https://bj.lianjia.com/zufang/BJ2321616335899205632.html,lj,116.29033700000001,39.864776
